timestamp,username,latitude,longitude,speed,speedAcc,vertical_acc,                altitude,course,courseAcc,heading,horizontal_acc,major,minor,rssi,rssi_accuracy,                attitude_pitch,attitude_roll,attitude_yaw,rotation_rate_x,rotation_rate_y,                rotation_rate_z,gravity_accel_x,gravity_accel_y,gravity_accel_z,user_accel_x,                user_accel_y,user_accel_z,magnetic_field_x,magnetic_field_y,magnetic_field_z
1706927768.190884,Northern Blue,36.9998912967716,-122.05834668960262,-1,-1,16.973588943481445,238.3736457824707,-1,-1,107.11387634277344,35,9,2,-80,1.0664998818656657,0.7339459368931687,-0.5877977777922442,0.24600501443595607,-0.48253047466278076,0.10447845607995987,0.7346352934837341,-0.4117589592933655,-0.6698048710823059,-0.6179125905036926,0.057861894369125366,-0.09725439548492432,0.04653191566467285,0,0,0
1706927768.190884,Northern Blue,36.9998912967716,-122.05834668960262,-1,-1,16.973588943481445,238.3736457824707,-1,-1,107.11387634277344,35,9,1,-87,3.5549139483405634,0.7339459368931687,-0.5877977777922442,0.24600501443595607,-0.48253047466278076,0.10447845607995987,0.7346352934837341,-0.4117589592933655,-0.6698048710823059,-0.6179125905036926,0.057861894369125366,-0.09725439548492432,0.04653191566467285,0,0,0
1706927768.190884,Northern Blue,36.9998912967716,-122.05834668960262,-1,-1,16.973588943481445,238.3736457824707,-1,-1,98.7027359008789,35,9,2,-81,1.0430286169858576,0.6953873697138531,-0.5885887330723044,0.3618397269628412,-0.19173920154571533,-0.3156566023826599,-0.013051892630755901,-0.42627623677253723,-0.6406829357147217,-0.6386030316352844,0.0732031762599945,-0.05708611011505127,0.008613348007202148,0,0,0
1706927768.190884,Northern Blue,36.9998912967716,-122.05834668960262,-1,-1,16.973588943481445,238.3736457824707,-1,-1,98.7027359008789,35,9,1,-89,3.331248612112037,0.6953873697138531,-0.5885887330723044,0.3618397269628412,-0.19173920154571533,-0.3156566023826599,-0.013051892630755901,-0.42627623677253723,-0.6406829357147217,-0.6386030316352844,0.0732031762599945,-0.05708611011505127,0.008613348007202148,0,0,0
1706927768.190884,Northern Blue,36.9998912967716,-122.05834668960262,-1,-1,16.973588943481445,238.3736457824707,-1,-1,93.98030090332031,35,9,2,-78,0.8850962810645657,0.5948492374017398,-0.6046442038300546,0.4136211108749173,-0.1410062611103058,0.3059183657169342,0.08792129158973694,-0.47082507610321045,-0.5603839159011841,-0.6813908815383911,0.03845211863517761,-0.09714770317077637,-0.03743547201156616,0,0,0
1706927768.190884,Northern Blue,36.9998912967716,-122.05834668960262,-1,-1,16.973588943481445,238.3736457824707,-1,-1,93.98030090332031,35,9,1,-86,2.8417894284675738,0.5948492374017398,-0.6046442038300546,0.4136211108749173,-0.1410062611103058,0.3059183657169342,0.08792129158973694,-0.47082507610321045,-0.5603839159011841,-0.6813908815383911,0.03845211863517761,-0.09714770317077637,-0.03743547201156616,0,0,0
1706927771.90092,Northern Blue,36.999911241050846,-122.05832590645963,-1,-1,18.23546600341797,238.33980560302734,-1,-1,88.23819732666016,35,9,2,-84,1.026980968445243,0.6327957359588973,-0.4377745562929246,0.4471321446097233,-0.07833229750394821,-0.03820902109146118,-0.027841640636324883,-0.3418434262275696,-0.5914014577865601,-0.730333685874939,0.09051597118377686,-0.11263895034790039,-0.01133507490158081,0,0,0
1706927771.90092,Northern Blue,36.999911241050846,-122.05832590645963,-1,-1,18.23546600341797,238.33980560302734,-1,-1,88.23819732666016,35,9,1,-85,2.4545466906769167,0.6327957359588973,-0.4377745562929246,0.4471321446097233,-0.07833229750394821,-0.03820902109146118,-0.027841640636324883,-0.3418434262275696,-0.5914014577865601,-0.730333685874939,0.09051597118377686,-0.11263895034790039,-0.01133507490158081,0,0,0
1706927771.90092,Northern Blue,36.999911241050846,-122.05832590645963,-1,-1,18.23546600341797,238.33980560302734,-1,-1,82.71317291259766,35,9,2,-79,0.9241013539351575,0.5190564504299907,-0.18424923708599858,0.471237972565138,0.13578921556472778,0.3201137185096741,0.33953937888145447,-0.1590776890516281,-0.4960610866546631,-0.8535910248756409,-0.005152612924575806,0.003568500280380249,-0.052399635314941406,0,0,0
1706927771.90092,Northern Blue,36.999911241050846,-122.05832590645963,-1,-1,18.23546600341797,238.33980560302734,-1,-1,82.71317291259766,35,9,1,-80,1.7434584619443978,0.5190564504299907,-0.18424923708599858,0.471237972565138,0.13578921556472778,0.3201137185096741,0.33953937888145447,-0.1590776890516281,-0.4960610866546631,-0.8535910248756409,-0.005152612924575806,0.003568500280380249,-0.052399635314941406,0,0,0
1706927773.826443,Northern Blue,36.99988948748488,-122.05833045697727,-1,-1,17.403501510620117,238.32027053833008,-1,-1,85.85110473632812,35,9,2,-77,0.7779427926560389,0.6176140957397352,-0.2683311005365177,0.43322084506762093,0.12545965611934662,-0.07583868503570557,-0.03818966820836067,-0.21614451706409454,-0.5790916681289673,-0.7860879898071289,-0.003688812255859375,-0.016626596450805664,0.06868070363998413,0,0,0
1706927773.826443,Northern Blue,36.99988948748488,-122.05833045697727,-1,-1,17.403501510620117,238.32027053833008,-1,-1,85.85110473632812,35,9,1,-86,1.7788095125419037,0.6176140957397352,-0.2683311005365177,0.43322084506762093,0.12545965611934662,-0.07583868503570557,-0.03818966820836067,-0.21614451706409454,-0.5790916681289673,-0.7860879898071289,-0.003688812255859375,-0.016626596450805664,0.06868070363998413,0,0,0
1706927773.826443,Northern Blue,36.99988948748488,-122.05833045697727,-1,-1,17.403501510620117,238.32027053833008,-1,-1,91.3666763305664,35,9,2,-83,0.9091852651461139,0.6708309953906707,-0.29399139361951715,0.34375087499000523,-0.015381960198283195,-0.14078515768051147,-0.17141593992710114,-0.22698204219341278,-0.6216371059417725,-0.7496975660324097,-0.04784396290779114,-0.07803928852081299,0.06650042533874512,0,0,0
1706927773.826443,Northern Blue,36.99988948748488,-122.05833045697727,-1,-1,17.403501510620117,238.32027053833008,-1,-1,91.3666763305664,35,9,1,-87,1.8620637218734164,0.6708309953906707,-0.29399139361951715,0.34375087499000523,-0.015381960198283195,-0.14078515768051147,-0.17141593992710114,-0.22698204219341278,-0.6216371059417725,-0.7496975660324097,-0.04784396290779114,-0.07803928852081299,0.06650042533874512,0,0,0
1706927773.826443,Northern Blue,36.99988948748488,-122.05833045697727,-1,-1,17.403501510620117,238.32027053833008,-1,-1,97.92864227294922,35,9,2,-78,0.8119783127291279,0.6703844627936437,-0.24568453918005878,0.21992397062378358,-0.10649113357067108,-0.09026435017585754,-0.15640106797218323,-0.19058330357074738,-0.6212872862815857,-0.7600526809692383,0.018906712532043457,-0.04048621654510498,-0.032763540744781494,0,0,0
1706927773.826443,Northern Blue,36.99988948748488,-122.05833045697727,-1,-1,17.403501510620117,238.32027053833008,-1,-1,97.92864227294922,35,9,1,-85,1.8074212806120509,0.6703844627936437,-0.24568453918005878,0.21992397062378358,-0.10649113357067108,-0.09026435017585754,-0.15640106797218323,-0.19058330357074738,-0.6212872862815857,-0.7600526809692383,0.018906712532043457,-0.04048621654510498,-0.032763540744781494,0,0,0
1706927776.365408,Northern Blue,36.9999251021132,-122.05812769834378,2.327958822250366,1.9530687884410682,8.683995839643378,242.6521265666561,83.34971150442534,21.837816295727478,99.03925323486328,29.733679656770633,9,2,-83,0.938988827764423,0.5830946931722837,-0.23326584138258247,0.19251431977629418,-0.132402703166008,-0.05203636363148689,-0.010014956817030907,-0.19296051561832428,-0.5506098866462708,-0.8121544718742371,0.003248050808906555,0.004086017608642578,0.00009697675704956055,0,0,0
1706927776.365408,Northern Blue,36.9999251021132,-122.05812769834378,2.327958822250366,1.9530687884410682,8.683995839643378,242.6521265666561,83.34971150442534,21.837816295727478,99.03925323486328,29.733679656770633,9,1,-87,1.8873372715915506,0.5830946931722837,-0.23326584138258247,0.19251431977629418,-0.132402703166008,-0.05203636363148689,-0.010014956817030907,-0.19296051561832428,-0.5506098866462708,-0.8121544718742371,0.003248050808906555,0.004086017608642578,0.00009697675704956055,0,0,0
1706927777.364973,Northern Blue,36.999962942220904,-122.05800092658026,3.712902784347534,2.04083101407041,8.467888078979751,242.50070550885675,76.05682465934004,12.945720995298343,100.07504272460938,26.074243550991763,9,2,-80,0.9171219040805243,0.5355652711514051,-0.18540943623308057,0.1643133505270533,0.11663179844617844,-0.37721651792526245,-0.3043000102043152,-0.15853647887706757,-0.5103272199630737,-0.8452409505844116,0.026395410299301147,0.16859149932861328,-0.041813552379608154,0,0,0
1706927777.364973,Northern Blue,36.999962942220904,-122.05800092658026,3.712902784347534,2.04083101407041,8.467888078979751,242.50070550885675,76.05682465934004,12.945720995298343,100.07504272460938,26.074243550991763,9,1,-85,1.824423326685603,0.5355652711514051,-0.18540943623308057,0.1643133505270533,0.11663179844617844,-0.37721651792526245,-0.3043000102043152,-0.15853647887706757,-0.5103272199630737,-0.8452409505844116,0.026395410299301147,0.16859149932861328,-0.041813552379608154,0,0,0
1706927778.364668,Northern Blue,36.99997443320282,-122.05791867983403,6.700360298156738,1.5751370984236097,7.266355631302499,242.33464883985897,78.0891390742399,10.258928357743514,97.80182647705078,24.291959776169584,9,2,-82,0.9841216623246138,0.46003100524071483,-0.25832236234906836,0.2050734738201054,-0.15530551970005035,-0.1961585134267807,0.059410545974969864,-0.22890110313892365,-0.44397589564323425,-0.8663080930709839,-0.03145955502986908,0.031576693058013916,0.02393132448196411,0,0,0
1706927778.364668,Northern Blue,36.99997443320282,-122.05791867983403,6.700360298156738,1.5751370984236097,7.266355631302499,242.33464883985897,78.0891390742399,10.258928357743514,97.80182647705078,24.291959776169584,9,1,-85,1.7804567543909615,0.46003100524071483,-0.25832236234906836,0.2050734738201054,-0.15530551970005035,-0.1961585134267807,0.059410545974969864,-0.22890110313892365,-0.44397589564323425,-0.8663080930709839,-0.03145955502986908,0.031576693058013916,0.02393132448196411,0,0,0
1706927779.370085,Northern Blue,36.99998268218393,-122.05784317066349,7.644937515258789,2.849912530176679,7.793502401723516,242.1906833610196,81.78156847994656,15.908011053694208,96.7188949584961,23.417213581142576,9,2,-89,1.2683614671604029,0.43179521134812116,-0.2525673647150494,0.23019907467206482,0.10792747884988785,0.18654018640518188,0.07329826056957245,-0.22695469856262207,-0.41850191354751587,-0.8794019222259521,0.022761628031730652,0.06294170022010803,0.015769660472869873,0,0,0
1706927779.370085,Northern Blue,36.99998268218393,-122.05784317066349,7.644937515258789,2.849912530176679,7.793502401723516,242.1906833610196,81.78156847994656,15.908011053694208,96.7188949584961,23.417213581142576,9,1,-85,1.7491493651456402,0.43179521134812116,-0.2525673647150494,0.23019907467206482,0.10792747884988785,0.18654018640518188,0.07329826056957245,-0.22695469856262207,-0.41850191354751587,-0.8794019222259521,0.022761628031730652,0.06294170022010803,0.015769660472869873,0,0,0
1706927780.3656158,Northern Blue,36.99998989793828,-122.05775579303747,7.644937515258789,3.2084002636133486,7.357504084717419,241.94339547925375,82.90869045994587,17.18696754287763,93.53653717041016,23.1231015436867,9,2,-82,1.2220587614760436,0.5858144833970129,-0.07682429268281539,0.25481802498457956,0.23662929236888885,0.2425418496131897,-0.08513321727514267,-0.06395182013511658,-0.5528782606124878,-0.8308042883872986,-0.0017677545547485352,0.045065879821777344,0.014169096946716309,0,0,0
1706927780.3656158,Northern Blue,36.99998989793828,-122.05775579303747,7.644937515258789,3.2084002636133486,7.357504084717419,241.94339547925375,82.90869045994587,17.18696754287763,93.53653717041016,23.1231015436867,9,1,-89,1.9423419164071312,0.5858144833970129,-0.07682429268281539,0.25481802498457956,0.23662929236888885,0.2425418496131897,-0.08513321727514267,-0.06395182013511658,-0.5528782606124878,-0.8308042883872986,-0.0017677545547485352,0.045065879821777344,0.014169096946716309,0,0,0
1706927781.370161,Northern Blue,37.00000346394472,-122.0576618631939,8.8074312210083,3.7314907318803736,7.8502052831887585,241.7189045786624,82.95391637280557,20.540296447431388,93.48223876953125,23.127015003180546,9,2,-80,1.0869990590830747,0.6055205171376155,-0.06270162211846231,0.23965013267055096,0.005373138003051281,-0.0717838779091835,0.016762591898441315,-0.05151987075805664,-0.5691901445388794,-0.8205901980400085,0.015432864427566528,0.01901930570602417,-0.0039337873458862305,0,0,0
1706927781.370161,Northern Blue,37.00000346394472,-122.0576618631939,8.8074312210083,3.7314907318803736,7.8502052831887585,241.7189045786624,82.95391637280557,20.540296447431388,93.48223876953125,23.127015003180546,9,1,-88,2.0542547089282914,0.6055205171376155,-0.06270162211846231,0.23965013267055096,0.005373138003051281,-0.0717838779091835,0.016762591898441315,-0.05151987075805664,-0.5691901445388794,-0.8205901980400085,0.015432864427566528,0.01901930570602417,-0.0039337873458862305,0,0,0
1706927782.36551,Northern Blue,37.00002960215529,-122.0575558098997,8.805013656616211,3.5949222313137987,7.954351981136473,241.680086249624,80.0167322954955,20.600934192144443,89.13002014160156,23.107904389167523,9,2,-80,1.0098609580719866,0.5210380705197162,-0.08095528019981355,0.32317506215297687,0.053698789328336716,-0.049277350306510925,-0.025331540033221245,-0.07013607770204544,-0.4977807402610779,-0.8644623756408691,-0.052452996373176575,0.12032416462898254,-0.05889272689819336,0,0,0
1706927782.36551,Northern Blue,37.00002960215529,-122.0575558098997,8.805013656616211,3.5949222313137987,7.954351981136473,241.680086249624,80.0167322954955,20.600934192144443,89.13002014160156,23.107904389167523,9,1,-90,2.2589175747567674,0.5210380705197162,-0.08095528019981355,0.32317506215297687,0.053698789328336716,-0.049277350306510925,-0.025331540033221245,-0.07013607770204544,-0.4977807402610779,-0.8644623756408691,-0.052452996373176575,0.12032416462898254,-0.05889272689819336,0,0,0
1706927783.370986,Northern Blue,37.00005992809319,-122.0574573343268,8.961377143859863,3.601638093900467,7.947262414308176,241.9261982520319,75.44297418345394,19.69411043506681,91.23726654052734,23.052430812374332,9,2,-79,0.9170993795955587,0.6013897935280772,0.007215522852121452,0.25252590749571185,0.007547570858150721,0.04317872226238251,-0.02591153234243393,0.005949507933109999,-0.565788984298706,-0.8245285749435425,-0.024321064352989197,-0.040091633796691895,-0.0051985979080200195,0,0,0
1706927783.370986,Northern Blue,37.00005992809319,-122.0574573343268,8.961377143859863,3.601638093900467,7.947262414308176,241.9261982520319,75.44297418345394,19.69411043506681,91.23726654052734,23.052430812374332,9,1,-90,2.433799790554555,0.6013897935280772,0.007215522852121452,0.25252590749571185,0.007547570858150721,0.04317872226238251,-0.02591153234243393,0.005949507933109999,-0.565788984298706,-0.8245285749435425,-0.024321064352989197,-0.040091633796691895,-0.0051985979080200195,0,0,0
1706927784.3621778,Northern Blue,37.00008324898441,-122.05733503459135,8.961377143859863,3.6562407972140787,7.946232746520812,242.00611442337814,78.84034575018079,18.042544299238145,89.75468444824219,23.027798827561853,9,2,-78,0.8196548976228039,0.5262117854033052,-0.05714793779474062,0.32054161187705255,-0.1677940934896469,0.09073904901742935,0.3120766580104828,-0.04938983917236328,-0.502261221408844,-0.8633042573928833,-0.028094254434108734,0.06964409351348877,-0.0509260892868042,0,0,0
1706927784.3621778,Northern Blue,37.00008324898441,-122.05733503459135,8.961377143859863,3.6562407972140787,7.946232746520812,242.00611442337814,78.84034575018079,18.042544299238145,89.75468444824219,23.027798827561853,9,1,-86,2.275933556892205,0.5262117854033052,-0.05714793779474062,0.32054161187705255,-0.1677940934896469,0.09073904901742935,0.3120766580104828,-0.04938983917236328,-0.502261221408844,-0.8633042573928833,-0.028094254434108734,0.06964409351348877,-0.0509260892868042,0,0,0
1706927785.3793368,Northern Blue,37.0000906434394,-122.05724294153539,8.961377143859863,3.69554005522913,7.95342804262684,241.7021433327541,79.10495440355794,20.376112873085336,90.31140899658203,22.610048944961857,9,2,-79,0.8028184431407748,0.5230804432825895,-0.1824465226518715,0.3124210785898584,0.2002725750207901,-0.1091066300868988,-0.06545677036046982,-0.1571751981973648,-0.49955105781555176,-0.8519064784049988,-0.07674197852611542,-0.02298608422279358,-0.02661830186843872,0,0,0
1706927785.3793368,Northern Blue,37.0000906434394,-122.05724294153539,8.961377143859863,3.69554005522913,7.95342804262684,241.7021433327541,79.10495440355794,20.376112873085336,90.31140899658203,22.610048944961857,9,1,-86,2.1701078018851003,0.5230804432825895,-0.1824465226518715,0.3124210785898584,0.2002725750207901,-0.1091066300868988,-0.06545677036046982,-0.1571751981973648,-0.49955105781555176,-0.8519064784049988,-0.07674197852611542,-0.02298608422279358,-0.02661830186843872,0,0,0
1706927786.361124,Northern Blue,37.00010669402226,-122.05710970512492,7.111833095550537,5.938455221822979,8.42636276320291,241.045859313699,87.88803760540284,37.00120006702309,91.612060546875,65.70168839167661,9,2,-78,0.7537000513100298,0.5505442362138492,-0.12073682038990798,0.30098379974000494,0.10111955553293228,0.119959257543087,0.006729939486831427,-0.10264692455530167,-0.5231510996818542,-0.8460357785224915,-0.11370740830898285,0.0298956036567688,-0.14561772346496582,0,0,0
1706927786.361124,Northern Blue,37.00010669402226,-122.05710970512492,7.111833095550537,5.938455221822979,8.42636276320291,241.045859313699,87.88803760540284,37.00120006702309,91.612060546875,65.70168839167661,9,1,-88,2.232170464824959,0.5505442362138492,-0.12073682038990798,0.30098379974000494,0.10111955553293228,0.119959257543087,0.006729939486831427,-0.10264692455530167,-0.5231510996818542,-0.8460357785224915,-0.11370740830898285,0.0298956036567688,-0.14561772346496582,0,0,0
1706927787.31559,Northern Blue,37.00010893558977,-122.05703391974956,7.111833095546564,5.938455221857296,8.426362763341313,241.04586290288717,87.88808321429417,37.001200067023106,98.00120544433594,65.70168839165886,9,2,-77,0.687542169372556,0.5330850374159075,-0.10921681300968121,0.16389807425769748,-0.002660477766767144,-0.11603298783302307,-0.1269652545452118,-0.09387536346912384,-0.5081927180290222,-0.8561118841171265,-0.10778474807739258,0.026198208332061768,-0.06373375654220581,0,0,0
1706927787.31559,Northern Blue,37.00010893558977,-122.05703391974956,7.111833095546564,5.938455221857296,8.426362763341313,241.04586290288717,87.88808321429417,37.001200067023106,98.00120544433594,65.70168839165886,9,1,-88,2.281367336308699,0.5330850374159075,-0.10921681300968121,0.16389807425769748,-0.002660477766767144,-0.11603298783302307,-0.1269652545452118,-0.09387536346912384,-0.5081927180290222,-0.8561118841171265,-0.10778474807739258,0.026198208332061768,-0.06373375654220581,0,0,0
1706927788.2723,Northern Blue,37.00016190012653,-122.05689590647775,7.518495559687681,3.0106722584548704,15.147561184049257,240.8073566434905,86.53288592527895,19.13113772072948,103.19268798828125,37.39965339209515,9,2,-81,0.7818333594069315,0.5435874499216918,-0.12724476833326429,0.07474836428218658,-0.015651920810341835,-0.061647191643714905,-0.125345841050148,-0.10860989987850189,-0.5172096490859985,-0.8489393591880798,-0.06648468971252441,-0.035310983657836914,-0.09384024143218994,0,0,0
1706927788.2723,Northern Blue,37.00016190012653,-122.05689590647775,7.518495559687681,3.0106722584548704,15.147561184049257,240.8073566434905,86.53288592527895,19.13113772072948,103.19268798828125,37.39965339209515,9,1,-84,2.0106467254423404,0.5435874499216918,-0.12724476833326429,0.07474836428218658,-0.015651920810341835,-0.061647191643714905,-0.125345841050148,-0.10860989987850189,-0.5172096490859985,-0.8489393591880798,-0.06648468971252441,-0.035310983657836914,-0.09384024143218994,0,0,0
1706927789.252785,Northern Blue,37.000188163452144,-122.0568174360254,7.518495559687682,2.581268434181679,13.154069866719476,240.16762816533446,84.16490631741993,14.335106604646215,107.23454284667969,31.244765966728533,9,2,-77,0.7010644015720057,0.5383173448392126,-0.09612414196330929,0.002825424383251967,-0.20545898377895355,0.13276660442352295,-0.43988037109375,-0.08240251243114471,-0.5126920342445374,-0.8546090722084045,-0.07442730665206909,0.049221694469451904,0.009623050689697266,0,0,0
1706927789.252785,Northern Blue,37.000188163452144,-122.0568174360254,7.518495559687682,2.581268434181679,13.154069866719476,240.16762816533446,84.16490631741993,14.335106604646215,107.23454284667969,31.244765966728533,9,1,-82,1.6884639591534787,0.5383173448392126,-0.09612414196330929,0.002825424383251967,-0.20545898377895355,0.13276660442352295,-0.43988037109375,-0.08240251243114471,-0.5126920342445374,-0.8546090722084045,-0.07442730665206909,0.049221694469451904,0.009623050689697266,0,0,0
1706927790.187047,Northern Blue,37.00019914843452,-122.056752949334,7.518495559687676,2.5524139794371723,12.48693475289476,239.3714130409062,83.38490608406254,15.265880344371512,111.2457275390625,24.06768198234322,9,2,-81,0.792476004864044,0.539708884578148,-0.06673148997498932,-0.0835632248559879,0.13803988695144653,-0.169573575258255,-0.1316339671611786,-0.057203687727451324,-0.5138862729072571,-0.8559489846229553,0.037992894649505615,0.04200834035873413,0.026496410369873047,0,0,0
1706927790.187047,Northern Blue,37.00019914843452,-122.056752949334,7.518495559687676,2.5524139794371723,12.48693475289476,239.3714130409062,83.38490608406254,15.265880344371512,111.2457275390625,24.06768198234322,9,1,-80,1.3626818960235814,0.539708884578148,-0.06673148997498932,-0.0835632248559879,0.13803988695144653,-0.169573575258255,-0.1316339671611786,-0.057203687727451324,-0.5138862729072571,-0.8559489846229553,0.037992894649505615,0.04200834035873413,0.026496410369873047,0,0,0
1706927791.164627,Northern Blue,37.000093139046825,-122.05670623306426,7.483844280237853,2.1226094628014684,10.637732936900028,238.33347595017403,94.14192962646484,13.599167348266079,116.01477813720703,20.425161675883835,9,2,-84,0.9592684641792444,0.5003299166332851,-0.09701716729075538,-0.14332749565536948,-0.10049062967300415,-0.16083472967147827,0.0040756273083388805,-0.08499174565076828,-0.4797150492668152,-0.8732982873916626,-0.023086220026016235,0.11612871289253235,-0.13126415014266968,0,0,0
1706927791.164627,Northern Blue,37.000093139046825,-122.05670623306426,7.483844280237853,2.1226094628014684,10.637732936900028,238.33347595017403,94.14192962646484,13.599167348266079,116.01477813720703,20.425161675883835,9,1,-83,1.3419803214176533,0.5003299166332851,-0.09701716729075538,-0.14332749565536948,-0.10049062967300415,-0.16083472967147827,0.0040756273083388805,-0.08499174565076828,-0.4797150492668152,-0.8732982873916626,-0.023086220026016235,0.11612871289253235,-0.13126415014266968,0,0,0
1706927792.167735,Northern Blue,37.000087737320705,-122.05667510134545,6.276080131527733,2.2341980415808917,9.566997298709207,237.17641322873533,99.96647644042969,15.103015897532458,121.4677505493164,18.591754244876434,9,2,-88,1.226916776732122,0.5371180227708647,-0.14365493048399175,-0.22293241418049983,-0.13822022080421448,0.40627920627593994,0.12549956142902374,-0.12300233542919159,-0.511661946773529,-0.8503366112709045,-0.007872261106967926,0.08542311191558838,0.20530182123184204,0,0,0
1706927792.167735,Northern Blue,37.000087737320705,-122.05667510134545,6.276080131527733,2.2341980415808917,9.566997298709207,237.17641322873533,99.96647644042969,15.103015897532458,121.4677505493164,18.591754244876434,9,1,-84,1.3762679885309543,0.5371180227708647,-0.14365493048399175,-0.22293241418049983,-0.13822022080421448,0.40627920627593994,0.12549956142902374,-0.12300233542919159,-0.511661946773529,-0.8503366112709045,-0.007872261106967926,0.08542311191558838,0.20530182123184204,0,0,0
1706927793.164192,Northern Blue,37.00016241570429,-122.05654780559273,6.276080131527727,1.7864508953382212,8.82003839471008,235.99749296996742,104.26326626504935,14.126268981700328,124.18470764160156,16.055536756170177,9,2,-85,1.3458748270216727,0.5657835492966509,-0.10849002036933748,-0.28673680925870343,0.15950430929660797,-0.23088546097278595,-0.14556343853473663,-0.09140433371067047,-0.5360774397850037,-0.8392056822776794,-0.008174516260623932,0.05646330118179321,-0.009747564792633057,0,0,0
1706927793.164192,Northern Blue,37.00016241570429,-122.05654780559273,6.276080131527727,1.7864508953382212,8.82003839471008,235.99749296996742,104.26326626504935,14.126268981700328,124.18470764160156,16.055536756170177,9,1,-85,1.4511507178552634,0.5657835492966509,-0.10849002036933748,-0.28673680925870343,0.15950430929660797,-0.23088546097278595,-0.14556343853473663,-0.09140433371067047,-0.5360774397850037,-0.8392056822776794,-0.008174516260623932,0.05646330118179321,-0.009747564792633057,0,0,0
1706927794.167294,Northern Blue,37.00012922552846,-122.05649344801277,6.05256938934054,1.5371102350326213,7.7594712918505575,234.65933861956,106.7878807859537,13.85703459339212,125.03167724609375,14.667544008992758,9,2,-81,1.212953242490471,0.5690986149280495,-0.10258235515326046,-0.286332806013595,-0.09306622296571732,0.6406568288803101,0.16254489123821259,-0.08626256883144379,-0.5388729572296143,-0.8379586338996887,-0.07334434986114502,-0.04170858860015869,0.11380696296691895,0,0,0
1706927794.167294,Northern Blue,37.00012922552846,-122.05649344801277,6.05256938934054,1.5371102350326213,7.7594712918505575,234.65933861956,106.7878807859537,13.85703459339212,125.03167724609375,14.667544008992758,9,1,-93,1.8176672866809835,0.5690986149280495,-0.10258235515326046,-0.286332806013595,-0.09306622296571732,0.6406568288803101,0.16254489123821259,-0.08626256883144379,-0.5388729572296143,-0.8379586338996887,-0.07334434986114502,-0.04170858860015869,0.11380696296691895,0,0,0
1706927795.1551862,Northern Blue,37.00008615075885,-122.05645386870155,5.160927772520284,1.4999591974490631,7.7529375181059645,233.68445366155356,115.87134066790338,13.64373210593568,127.16230010986328,13.797053134710804,9,2,-79,1.028858096198022,0.5778412041484511,-0.11436973110063334,-0.331089765265121,0.3715025782585144,-0.025666002184152603,0.029072288423776627,-0.09559237211942673,-0.5462169051170349,-0.8321713209152222,0.04252230376005173,-0.07531917095184326,0.012789607048034668,0,0,0
1706927795.1551862,Northern Blue,37.00008615075885,-122.05645386870155,5.160927772520284,1.4999591974490631,7.7529375181059645,233.68445366155356,115.87134066790338,13.64373210593568,127.16230010986328,13.797053134710804,9,1,-90,2.0638624273536768,0.5778412041484511,-0.11436973110063334,-0.331089765265121,0.3715025782585144,-0.025666002184152603,0.029072288423776627,-0.09559237211942673,-0.5462169051170349,-0.8321713209152222,0.04252230376005173,-0.07531917095184326,0.012789607048034668,0,0,0
1706927796.157551,Northern Blue,37.00006353199886,-122.05640818088709,5.1496424674971015,1.8226162617741517,7.754276586671183,232.94904210977256,115.16548446968693,19.678083265317742,130.5294189453125,13.536544335378805,9,2,-80,0.9749137982688857,0.5907517275882026,-0.09746753387180272,-0.41047201450350546,-0.3935793936252594,-0.3598601818084717,-0.06250644475221634,-0.08082084357738495,-0.5569854974746704,-0.8265803456306458,0.010920330882072449,-0.13342881202697754,-0.07138419151306152,0,0,0
1706927796.157551,Northern Blue,37.00006353199886,-122.05640818088709,5.1496424674971015,1.8226162617741517,7.754276586671183,232.94904210977256,115.16548446968693,19.678083265317742,130.5294189453125,13.536544335378805,9,1,-89,2.217055172420298,0.5907517275882026,-0.09746753387180272,-0.41047201450350546,-0.3935793936252594,-0.3598601818084717,-0.06250644475221634,-0.08082084357738495,-0.5569854974746704,-0.8265803456306458,0.010920330882072449,-0.13342881202697754,-0.07138419151306152,0,0,0
1706927797.159369,Northern Blue,37.000056166313456,-122.05638042461855,3.646559000014664,1.3654628786946743,7.750428686355159,232.44122218340635,113.97650755924064,17.951118505878178,139.74661254882812,12.18358939837721,9,2,-82,1.0237240694396703,0.6164349866797718,0.08803689666966084,-0.6288489341760144,-0.013493700884282589,-0.1934301257133484,-0.04336598515510559,0.07174047827720642,-0.5781300067901611,-0.8127846717834473,-0.039651259779930115,-0.049860596656799316,0.011499881744384766,0,0,0
1706927797.159369,Northern Blue,37.000056166313456,-122.05638042461855,3.646559000014664,1.3654628786946743,7.750428686355159,232.44122218340635,113.97650755924064,17.951118505878178,139.74661254882812,12.18358939837721,9,1,-89,2.339180381772733,0.6164349866797718,0.08803689666966084,-0.6288489341760144,-0.013493700884282589,-0.1934301257133484,-0.04336598515510559,0.07174047827720642,-0.5781300067901611,-0.8127846717834473,-0.039651259779930115,-0.049860596656799316,0.011499881744384766,0,0,0
1706927798.151129,Northern Blue,37.00003225224592,-122.05632531479047,4.628135681151126,1.4186197372463512,7.746582491770844,232.0673305913806,117.73704571769221,14.111261045294468,142.85606384277344,11.49164614173311,9,2,-82,1.0591153095362238,0.5737773916038924,-0.08812028956108889,-0.6319161688642333,0.2854697108268738,-0.49316537380218506,-0.0648004487156868,-0.07391265779733658,-0.5428083539009094,-0.8365978002548218,-0.05455109477043152,0.036323487758636475,0.21165883541107178,0,0,0
1706927798.151129,Northern Blue,37.00003225224592,-122.05632531479047,4.628135681151126,1.4186197372463512,7.746582491770844,232.0673305913806,117.73704571769221,14.111261045294468,142.85606384277344,11.49164614173311,9,1,-89,2.436016629174587,0.5737773916038924,-0.08812028956108889,-0.6319161688642333,0.2854697108268738,-0.49316537380218506,-0.0648004487156868,-0.07391265779733658,-0.5428083539009094,-0.8365978002548218,-0.05455109477043152,0.036323487758636475,0.21165883541107178,0,0,0
1706927799.155303,Northern Blue,37.00000976701281,-122.05626784343985,4.628135681151126,1.7260772442172119,7.712867672768627,231.8257903791964,117.40123904830654,12.254930815396039,148.59156799316406,11.107548069904723,9,2,-84,1.1678059977941024,0.5279456242558997,-0.06904761113365654,-0.7277726722890682,0.12055633217096329,-0.22429966926574707,0.04105127975344658,-0.05959896370768547,-0.5037597417831421,-0.861785352230072,-0.027727093547582626,-0.024926602840423584,0.06597846746444702,0,0,0
1706927799.155303,Northern Blue,37.00000976701281,-122.05626784343985,4.628135681151126,1.7260772442172119,7.712867672768627,231.8257903791964,117.40123904830654,12.254930815396039,148.59156799316406,11.107548069904723,9,1,-92,2.7011017742731225,0.5279456242558997,-0.06904761113365654,-0.7277726722890682,0.12055633217096329,-0.22429966926574707,0.04105127975344658,-0.05959896370768547,-0.5037597417831421,-0.861785352230072,-0.027727093547582626,-0.024926602840423584,0.06597846746444702,0,0,0
1706927800.151094,Northern Blue,36.999962470265736,-122.05618855808005,6.166335105893113,2.2957067274388647,7.725298055022328,231.71754521876574,124.49208773528417,12.488098248845253,154.44943237304688,10.906930650232493,9,2,-82,1.1574114200017562,0.5950866403845032,-0.11195013987846048,-0.820483773227899,-0.10500700771808624,-0.2524248957633972,-0.18038609623908997,-0.09251237660646439,-0.5605804920196533,-0.8229160904884338,-0.051606886088848114,-0.042217791080474854,-0.06311601400375366,0,0,0
1706927800.151094,Northern Blue,36.999962470265736,-122.05618855808005,6.166335105893113,2.2957067274388647,7.725298055022328,231.71754521876574,124.49208773528417,12.488098248845253,154.44943237304688,10.906930650232493,9,1,-92,2.9348118445888542,0.5950866403845032,-0.11195013987846048,-0.820483773227899,-0.10500700771808624,-0.2524248957633972,-0.18038609623908997,-0.09251237660646439,-0.5605804920196533,-0.8229160904884338,-0.051606886088848114,-0.042217791080474854,-0.06311601400375366,0,0,0
1706927801.164789,Northern Blue,36.99990646873182,-122.05611563705999,7.473174095148673,2.435090447082913,7.685262341049491,231.6782459365204,131.78315560303093,12.52273654900879,165.59793090820312,11.005039333426609,9,2,-82,1.1505547916659822,0.623061672091672,0.02123974419295488,-1.0470367460211774,-0.05211165174841881,-0.033358365297317505,-0.3419865667819977,0.017247408628463745,-0.5835242867469788,-0.8119125366210938,-0.07437634468078613,0.027509331703186035,-0.049476683139801025,0,0,0
1706927801.164789,Northern Blue,36.99990646873182,-122.05611563705999,7.473174095148673,2.435090447082913,7.685262341049491,231.6782459365204,131.78315560303093,12.52273654900879,165.59793090820312,11.005039333426609,9,1,-93,3.203236190953793,0.623061672091672,0.02123974419295488,-1.0470367460211774,-0.05211165174841881,-0.033358365297317505,-0.3419865667819977,0.017247408628463745,-0.5835242867469788,-0.8119125366210938,-0.07437634468078613,0.027509331703186035,-0.049476683139801025,0,0,0
1706927802.150893,Northern Blue,36.99983265686931,-122.05603561438787,9.146876335134618,2.685507512727313,7.684811369810912,231.5956483418122,136.74446367323569,11.90274597585744,171.40936279296875,11.305843821572893,9,2,-82,1.145968796744452,0.5781305068943746,0.044678734101640624,-1.1610692226605943,0.04447123408317566,0.08318664133548737,0.03349266201257706,0.0374053530395031,-0.5464591979980469,-0.8366499543190002,0.03267821669578552,0.12038815021514893,-0.02530384063720703,0,0,0
1706927802.150893,Northern Blue,36.99983265686931,-122.05603561438787,9.146876335134618,2.685507512727313,7.684811369810912,231.5956483418122,136.74446367323569,11.90274597585744,171.40936279296875,11.305843821572893,9,1,-90,3.1941123141732843,0.5781305068943746,0.044678734101640624,-1.1610692226605943,0.04447123408317566,0.08318664133548737,0.03349266201257706,0.0374053530395031,-0.5464591979980469,-0.8366499543190002,0.03267821669578552,0.12038815021514893,-0.02530384063720703,0,0,0
1706927803.1534271,Northern Blue,36.999759711809766,-122.05596856348662,9.69538879393408,2.518509579299378,7.688208412213331,231.40227452013642,140.35944754226492,10.506147969183582,171.40936279296875,11.722584269096375,9,2,-86,1.3127551607682064,0.5689034777282175,0.02786389698339988,-1.1467242977624996,-0.020580939948558807,0.010544311255216599,0.017742834985256195,0.023472078144550323,-0.5387085676193237,-0.8421651124954224,0.034694403409957886,0.012356758117675781,-0.09899699687957764,0,0,0
1706927803.1534271,Northern Blue,36.999759711809766,-122.05596856348662,9.69538879393408,2.518509579299378,7.688208412213331,231.40227452013642,140.35944754226492,10.506147969183582,171.40936279296875,11.722584269096375,9,1,-92,3.351447230717605,0.5689034777282175,0.02786389698339988,-1.1467242977624996,-0.020580939948558807,0.010544311255216599,0.017742834985256195,0.023472078144550323,-0.5387085676193237,-0.8421651124954224,0.034694403409957886,0.012356758117675781,-0.09899699687957764,0,0,0
1706927804.152975,Northern Blue,36.9996878115519,-122.05590943502825,9.695388793934075,2.497782009153738,7.704616677594125,231.20058071240783,144.21711564043105,10.48764449944491,169.29193115234375,12.317286216805497,9,2,-85,1.4065112850434724,0.5796256048880712,-0.0022334861234824,-1.102004185456562,0.08433814346790314,-0.1327376514673233,-0.0050096637569367886,-0.001868684310466051,-0.5477107167243958,-0.836665689945221,-0.008263170719146729,-0.0010409951210021973,-0.014851093292236328,0,0,0
1706927804.152975,Northern Blue,36.9996878115519,-122.05590943502825,9.695388793934075,2.497782009153738,7.704616677594125,231.20058071240783,144.21711564043105,10.48764449944491,169.29193115234375,12.317286216805497,9,1,-92,3.4835340502341783,0.5796256048880712,-0.0022334861234824,-1.102004185456562,0.08433814346790314,-0.1327376514673233,-0.0050096637569367886,-0.001868684310466051,-0.5477107167243958,-0.836665689945221,-0.008263170719146729,-0.0010409951210021973,-0.014851093292236328,0,0,0
1706927805.15656,Northern Blue,36.99960547114036,-122.05585376627529,9.935676574694932,2.434812544485426,7.7098426760116086,230.89885280746967,148.08323433051453,9.92257908568859,169.29193115234375,12.589936230416843,9,2,-87,1.5726167571873544,0.5743688927617029,-0.027740430755688935,-1.0969071054848984,0.06927568465471268,-0.05167602002620697,0.02348221279680729,-0.023286085575819016,-0.5433050394058228,-0.8392123579978943,0.04489251971244812,0.0821540355682373,0.06940639019012451,0,0,0
1706927805.15656,Northern Blue,36.99960547114036,-122.05585376627529,9.935676574694932,2.434812544485426,7.7098426760116086,230.89885280746967,148.08323433051453,9.92257908568859,169.29193115234375,12.589936230416843,9,1,-93,3.6735591182080083,0.5743688927617029,-0.027740430755688935,-1.0969071054848984,0.06927568465471268,-0.05167602002620697,0.02348221279680729,-0.023286085575819016,-0.5433050394058228,-0.8392123579978943,0.04489251971244812,0.0821540355682373,0.06940639019012451,0,0,0
1706927806.1597,Northern Blue,36.999519018553414,-122.05579388590564,10.168496131883998,2.222651177304164,7.701387229759677,230.5029933275655,149.59853519117732,9.070424027791033,169.29193115234375,12.093349061808642,9,2,-86,1.6554449528048578,0.5676118307400679,-0.049840332441847345,-1.0715338435926258,0.008706311695277691,0.08701986074447632,0.07363539189100266,-0.042007338255643845,-0.5376198887825012,-0.842140257358551,0.027435168623924255,0.012977063655853271,-0.01564788818359375,0,0,0
1706927806.1597,Northern Blue,36.999519018553414,-122.05579388590564,10.168496131883998,2.222651177304164,7.701387229759677,230.5029933275655,149.59853519117732,9.070424027791033,169.29193115234375,12.093349061808642,9,1,-89,3.4491739756455875,0.5676118307400679,-0.049840332441847345,-1.0715338435926258,0.008706311695277691,0.08701986074447632,0.07363539189100266,-0.042007338255643845,-0.5376198887825012,-0.842140257358551,0.027435168623924255,0.012977063655853271,-0.01564788818359375,0,0,0
1706927807.1494122,Northern Blue,36.999454404450745,-122.05568510148323,9.613365929769495,2.2158570222124885,1.0444995332193054,228.86850257311016,147.6687918688882,11.653662322545754,164.8190460205078,6.9560891356170504,9,2,-84,1.5972741094513965,0.5555138276951215,-0.003050034692940511,-1.011324364562903,0.044608306139707565,0.08319699764251709,0.0344562903046608,-0.002591395517811179,-0.5273799300193787,-0.8496255874633789,0.008847475051879883,0.017217695713043213,-0.1220693588256836,0,0,0
1706927807.1494122,Northern Blue,36.999454404450745,-122.05568510148323,9.613365929769495,2.2158570222124885,1.0444995332193054,228.86850257311016,147.6687918688882,11.653662322545754,164.8190460205078,6.9560891356170504,9,1,-89,3.2898030364827986,0.5555138276951215,-0.003050034692940511,-1.011324364562903,0.044608306139707565,0.08319699764251709,0.0344562903046608,-0.002591395517811179,-0.5273799300193787,-0.8496255874633789,0.008847475051879883,0.017217695713043213,-0.1220693588256836,0,0,0
1706927808.146873,Northern Blue,36.999377106773466,-122.05563737243803,9.220544923099162,2.136380728126592,1.0798122984773213,228.76634575240314,149.26626496464561,12.009019625837697,155.53424072265625,7.01830670228835,9,2,-84,1.55834833144414,0.4525741342930697,-0.13363209966881548,-0.8223278429734693,0.09209387749433517,0.045987095683813095,0.02502376213669777,-0.11982125043869019,-0.4372819662094116,-0.8913065195083618,-0.00981740653514862,0.13605833053588867,-0.14687097072601318,0,0,0
1706927808.146873,Northern Blue,36.999377106773466,-122.05563737243803,9.220544923099162,2.136380728126592,1.0798122984773213,228.76634575240314,149.26626496464561,12.009019625837697,155.53424072265625,7.01830670228835,9,1,-89,3.1720539091654536,0.4525741342930697,-0.13363209966881548,-0.8223278429734693,0.09209387749433517,0.045987095683813095,0.02502376213669777,-0.11982125043869019,-0.4372819662094116,-0.8913065195083618,-0.00981740653514862,0.13605833053588867,-0.14687097072601318,0,0,0
1706927809.156045,Northern Blue,36.9993183707521,-122.05561119934696,7.989447006520152,2.693079358075121,1.0329382256628932,228.9128907835111,153.74928249487817,15.775259620054808,152.01406860351562,7.305296759781331,9,2,-85,1.587972621524403,0.545245997384999,-0.07819203614491371,-0.7874567909754904,0.1988822966814041,-0.11880546063184738,-0.10647375881671906,-0.06678606569766998,-0.5186284184455872,-0.8523873090744019,0.033216699957847595,0.01847594976425171,0.04367142915725708,0,0,0
1706927809.156045,Northern Blue,36.9993183707521,-122.05561119934696,7.989447006520152,2.693079358075121,1.0329382256628932,228.9128907835111,153.74928249487817,15.775259620054808,152.01406860351562,7.305296759781331,9,1,-86,2.786229900781169,0.545245997384999,-0.07819203614491371,-0.7874567909754904,0.1988822966814041,-0.11880546063184738,-0.10647375881671906,-0.06678606569766998,-0.5186284184455872,-0.8523873090744019,0.033216699957847595,0.01847594976425171,0.04367142915725708,0,0,0
1706927810.152367,Northern Blue,36.99925196769101,-122.05557067401672,8.165300812261751,2.5914781320498546,1.029480874612107,229.04204741679132,154.17468892838374,15.189781609844324,151.69857788085938,7.621721410962779,9,2,-83,1.491358414030026,0.5346674305921667,-0.0856681895599369,-0.755258526459101,-0.1693190634250641,0.27603280544281006,0.12489725649356842,-0.07362204790115356,-0.509554922580719,-0.8572826385498047,0.020094186067581177,-0.028500378131866455,0.017972946166992188,0,0,0
1706927810.152367,Northern Blue,36.99925196769101,-122.05557067401672,8.165300812261751,2.5914781320498546,1.029480874612107,229.04204741679132,154.17468892838374,15.189781609844324,151.69857788085938,7.621721410962779,9,1,-90,2.8581117614493388,0.5346674305921667,-0.0856681895599369,-0.755258526459101,-0.1693190634250641,0.27603280544281006,0.12489725649356842,-0.07362204790115356,-0.509554922580719,-0.8572826385498047,0.020094186067581177,-0.028500378131866455,0.017972946166992188,0,0,0
1706927811.157129,Northern Blue,36.99918058602917,-122.0555474429705,7.648505472091476,2.0013387722116267,1.1138774803959637,229.1263865744695,153.64950630013513,12.999614145530497,146.2463836669922,8.067105404818607,9,2,-80,1.244281214858963,0.5106237680254607,-0.1057102149430739,-0.6770884241294379,-0.03426997363567352,-0.03608784079551697,0.05942748859524727,-0.09205412864685059,-0.4887215495109558,-0.8675697445869446,0.005643606185913086,0.02686864137649536,-0.1160881519317627,0,0,0
1706927811.157129,Northern Blue,36.99918058602917,-122.0555474429705,7.648505472091476,2.0013387722116267,1.1138774803959637,229.1263865744695,153.64950630013513,12.999614145530497,146.2463836669922,8.067105404818607,9,1,-92,3.054768915327898,0.5106237680254607,-0.1057102149430739,-0.6770884241294379,-0.03426997363567352,-0.03608784079551697,0.05942748859524727,-0.09205412864685059,-0.4887215495109558,-0.8675697445869446,0.005643606185913086,0.02686864137649536,-0.1160881519317627,0,0,0
1706927812.1602678,Northern Blue,36.99913937011026,-122.0555049893019,7.110388154440444,1.9786181744228548,1.108629056577926,228.7526473114267,152.981655032899,13.83235319918777,142.84152221679688,8.374149428126122,9,2,-77,0.9416195002108226,0.49004795238923193,-0.10639149508601928,-0.6112399033537298,-0.07278721034526825,-0.30807992815971375,-0.0833962932229042,-0.0936933159828186,-0.4706681966781616,-0.8773214817047119,0.08690313994884491,0.014598339796066284,-0.02723485231399536,0,0,0
1706927812.1602678,Northern Blue,36.99913937011026,-122.0555049893019,7.110388154440444,1.9786181744228548,1.108629056577926,228.7526473114267,152.981655032899,13.83235319918777,142.84152221679688,8.374149428126122,9,1,-92,3.228610882016821,0.49004795238923193,-0.10639149508601928,-0.6112399033537298,-0.07278721034526825,-0.30807992815971375,-0.0833962932229042,-0.0936933159828186,-0.4706681966781616,-0.8773214817047119,0.08690313994884491,0.014598339796066284,-0.02723485231399536,0,0,0
1706927813.1676521,Northern Blue,36.999101436155826,-122.05546204245141,6.330498004885536,1.8246373014138553,1.237345838988407,228.37950864061713,151.58840190561335,15.049404122433009,138.73297119140625,8.426339589346831,9,2,-82,0.9974601348512503,0.5735682379597778,-0.08442552924974213,-0.5469797086726711,0.503781259059906,0.12464199960231781,-0.036220259964466095,-0.07083070278167725,-0.5426326990127563,-0.8369783163070679,0.02384890615940094,0.0610044002532959,-0.18359053134918213,0,0,0
1706927813.1676521,Northern Blue,36.999101436155826,-122.05546204245141,6.330498004885536,1.8246373014138553,1.237345838988407,228.37950864061713,151.58840190561335,15.049404122433009,138.73297119140625,8.426339589346831,9,1,-87,2.920925228963254,0.5735682379597778,-0.08442552924974213,-0.5469797086726711,0.503781259059906,0.12464199960231781,-0.036220259964466095,-0.07083070278167725,-0.5426326990127563,-0.8369783163070679,0.02384890615940094,0.0610044002532959,-0.18359053134918213,0,0,0
1706927814.159933,Northern Blue,36.99907435845625,-122.05541936652055,5.510984963885236,1.6865427557364447,1.2285636806298275,228.03533118404448,148.2684649268528,16.198277452312595,138.55926513671875,8.284933606119484,9,2,-83,1.0795927101261342,0.5883109442540007,-0.12030603522668108,-0.539271160454142,0.06552690267562866,-0.11824832856655121,0.011008929461240768,-0.09983883798122406,-0.5549567341804504,-0.8258662819862366,-0.028319723904132843,-0.01161724328994751,-0.06268352270126343,0,0,0
1706927814.159933,Northern Blue,36.99907435845625,-122.05541936652055,5.510984963885236,1.6865427557364447,1.2285636806298275,228.03533118404448,148.2684649268528,16.198277452312595,138.55926513671875,8.284933606119484,9,1,-87,2.714914992377807,0.5883109442540007,-0.12030603522668108,-0.539271160454142,0.06552690267562866,-0.11824832856655121,0.011008929461240768,-0.09983883798122406,-0.5549567341804504,-0.8258662819862366,-0.028319723904132843,-0.01161724328994751,-0.06268352270126343,0,0,0
1706927815.163494,Northern Blue,36.99905776876512,-122.05535851537856,5.13415824708259,1.6456430627487124,1.2183415822618058,228.42963670846075,139.9889421876676,17.189442438490975,136.22389221191406,8.22186076303538,9,1,0,-1,0.5346146805860923,-0.11204336751653808,-0.4818157405732493,-0.06111994385719299,-0.1283709555864334,0.07440435141324997,-0.09620780497789383,-0.5095095038414001,-0.855069637298584,-0.042998120188713074,0.025897562503814697,0.05074828863143921,0,0,0
1706927815.163494,Northern Blue,36.99905776876512,-122.05535851537856,5.13415824708259,1.6456430627487124,1.2183415822618058,228.42963670846075,139.9889421876676,17.189442438490975,136.22389221191406,8.22186076303538,9,2,-81,1.0518221443027755,0.5346146805860923,-0.11204336751653808,-0.4818157405732493,-0.06111994385719299,-0.1283709555864334,0.07440435141324997,-0.09620780497789383,-0.5095095038414001,-0.855069637298584,-0.042998120188713074,0.025897562503814697,0.05074828863143921,0,0,0
1706927816.161628,Northern Blue,36.99904941436134,-122.05527519672144,4.97827008157436,1.4907785865827032,1.2117899024101784,228.72775096073747,126.2847634399964,17.29609489049458,133.007080078125,7.920687714270808,9,2,-85,1.198924936834102,0.4944958184707116,-0.12586592756980733,-0.4362358929391912,0.22551047801971436,0.23327764868736267,-0.058338042348623276,-0.1104959174990654,-0.47458791732788086,-0.8732450604438782,-0.115517258644104,0.03533327579498291,-0.0180513858795166,0,0,0
1706927816.161628,Northern Blue,36.99904941436134,-122.05527519672144,4.97827008157436,1.4907785865827032,1.2117899024101784,228.72775096073747,126.2847634399964,17.29609489049458,133.007080078125,7.920687714270808,9,1,-87,2.5695798977203155,0.4944958184707116,-0.12586592756980733,-0.4362358929391912,0.22551047801971436,0.23327764868736267,-0.058338042348623276,-0.1104959174990654,-0.47458791732788086,-0.8732450604438782,-0.115517258644104,0.03533327579498291,-0.0180513858795166,0,0,0
1706927817.159517,Northern Blue,36.99903421199971,-122.05522416098397,4.441879022901,1.498374108003655,1.2029842600467222,228.51318153180182,125.2084970210152,17.52911335447536,131.73521423339844,7.000222592961193,9,2,-81,1.1263804408191014,0.5253934666240072,-0.16279042191631132,-0.40800612385050566,-0.02350842021405697,0.250275582075119,0.06389306485652924,-0.14021311700344086,-0.5015534162521362,-0.8536887168884277,-0.05525195598602295,0.04444599151611328,0.012578427791595459,0,0,0
1706927817.159517,Northern Blue,36.99903421199971,-122.05522416098397,4.441879022901,1.498374108003655,1.2029842600467222,228.51318153180182,125.2084970210152,17.52911335447536,131.73521423339844,7.000222592961193,9,1,-92,2.9263727116112914,0.5253934666240072,-0.16279042191631132,-0.40800612385050566,-0.02350842021405697,0.250275582075119,0.06389306485652924,-0.14021311700344086,-0.5015534162521362,-0.8536887168884277,-0.05525195598602295,0.04444599151611328,0.012578427791595459,0,0,0
1706927818.16122,Northern Blue,36.99902543050458,-122.05517379031943,3.6856688344236708,1.3794069069989143,1.2045251706849203,229.63683463260531,117.71177600472926,20.089954623768758,136.1442108154297,6.567605492414655,9,2,-93,1.4925106280423033,0.49586008024086065,-0.1520135012893172,-0.48865380396860425,-0.29856669902801514,-0.4925081133842468,0.03800782933831215,-0.13319061696529388,-0.47578832507133484,-0.8694168925285339,0.03518344461917877,-0.06040540337562561,0.024476706981658936,0,0,0
1706927818.16122,Northern Blue,36.99902543050458,-122.05517379031943,3.6856688344236708,1.3794069069989143,1.2045251706849203,229.63683463260531,117.71177600472926,20.089954623768758,136.1442108154297,6.567605492414655,9,1,-93,3.2638740130264985,0.49586008024086065,-0.1520135012893172,-0.48865380396860425,-0.29856669902801514,-0.4925081133842468,0.03800782933831215,-0.13319061696529388,-0.47578832507133484,-0.8694168925285339,0.03518344461917877,-0.06040540337562561,0.024476706981658936,0,0,0
1706927819.149405,Northern Blue,36.99901790779826,-122.05515276131302,2.6397763999661503,1.3216273063888095,1.3280300055834495,229.6200566040352,120.03446271550332,27.341985840762835,140.6223907470703,6.355117863522877,9,2,-77,1.0250913754684772,0.316428231633284,0.00750575676779173,-0.6048030673937989,-0.62342768907547,-0.5558531880378723,-0.10282597690820694,0.007133050821721554,-0.3111741244792938,-0.950326144695282,0.03775830566883087,-0.142042338848114,-0.029105007648468018,0,0,0
1706927819.149405,Northern Blue,36.99901790779826,-122.05515276131302,2.6397763999661503,1.3216273063888095,1.3280300055834495,229.6200566040352,120.03446271550332,27.341985840762835,140.6223907470703,6.355117863522877,9,1,-91,3.3405617441195674,0.316428231633284,0.00750575676779173,-0.6048030673937989,-0.62342768907547,-0.5558531880378723,-0.10282597690820694,0.007133050821721554,-0.3111741244792938,-0.950326144695282,0.03775830566883087,-0.142042338848114,-0.029105007648468018,0,0,0
1706927820.148961,Northern Blue,36.999011183597446,-122.0551402891162,1.8974387169068516,1.398196376087128,1.3161639362987978,229.3157021785155,121.90608058222132,38.92141762603529,137.95216369628906,6.320386021157777,9,2,0,-1,0.4823485735812885,-0.00505373423564988,-0.5425617759009942,0.13395917415618896,-0.6061701774597168,0.13730090856552124,-0.004477124195545912,-0.4638610780239105,-0.885896623134613,0.0739198625087738,-0.18727713823318481,0.13975703716278076,0,0,0
1706927820.148961,Northern Blue,36.999011183597446,-122.0551402891162,1.8974387169068516,1.398196376087128,1.3161639362987978,229.3157021785155,121.90608058222132,38.92141762603529,137.95216369628906,6.320386021157777,9,1,-91,3.3961190878228638,0.4823485735812885,-0.00505373423564988,-0.5425617759009942,0.13395917415618896,-0.6061701774597168,0.13730090856552124,-0.004477124195545912,-0.4638610780239105,-0.885896623134613,0.0739198625087738,-0.18727713823318481,0.13975703716278076,0,0,0
1706927821.158978,Northern Blue,36.9990154547825,-122.05513029849628,1.5262250873825167,1.4659203520564785,1.261249030627068,228.99184183124453,113.14483534376184,49.7889385524756,141.29449462890625,6.339664529248642,9,2,-86,1.2034539649874467,0.5401957427483136,-0.18910984435017977,-0.5394405094657918,0.31129151582717896,0.17314814031124115,0.19137069582939148,-0.16121716797351837,-0.5143038630485535,-0.8423185348510742,0.02863354980945587,-0.11141318082809448,0.08270543813705444,0,0,0
1706927821.158978,Northern Blue,36.9990154547825,-122.05513029849628,1.5262250873825167,1.4659203520564785,1.261249030627068,228.99184183124453,113.14483534376184,49.7889385524756,141.29449462890625,6.339664529248642,9,1,-94,3.686084139866723,0.5401957427483136,-0.18910984435017977,-0.5394405094657918,0.31129151582717896,0.17314814031124115,0.19137069582939148,-0.16121716797351837,-0.5143038630485535,-0.8423185348510742,0.02863354980945587,-0.11141318082809448,0.08270543813705444,0,0,0
1706927822.1561608,Northern Blue,36.99901404409037,-122.05511778638272,1.3647331486942396,1.50403120921224,1.1797400854812772,228.85176450479776,115.87840040451422,55.25216614851838,154.34872436523438,6.386111615699363,9,2,-86,1.4558117081712192,0.4043141127621361,-0.09310393731225163,-0.7379709926862925,0.5520461797714233,0.5991896986961365,-0.2999323308467865,-0.08547358214855194,-0.3933882713317871,-0.9153906106948853,-0.07700200378894806,-0.09568634629249573,0.09747368097305298,0,0,0
1706927822.1561608,Northern Blue,36.99901404409037,-122.05511778638272,1.3647331486942396,1.50403120921224,1.1797400854812772,228.85176450479776,115.87840040451422,55.25216614851838,154.34872436523438,6.386111615699363,9,1,-89,3.449088593028788,0.4043141127621361,-0.09310393731225163,-0.7379709926862925,0.5520461797714233,0.5991896986961365,-0.2999323308467865,-0.08547358214855194,-0.3933882713317871,-0.9153906106948853,-0.07700200378894806,-0.09568634629249573,0.09747368097305298,0,0,0
1706927823.150327,Northern Blue,36.99900021411287,-122.05510207900657,1.5165278743738149,1.5270819013116215,1.2027869913392248,229.94672302063555,122.39346675804886,46.94847421633794,174.35443115234375,6.31027557142523,9,2,-85,1.5284028747830938,0.4071296460248919,-0.14935861982817308,-1.0434626468513115,0.14990653097629547,0.07641609013080597,-0.2761742174625397,-0.13664086163043976,-0.3959752321243286,-0.9080379009246826,-0.11226052045822144,-0.10103395581245422,0.04753375053405762,0,0,0
1706927823.150327,Northern Blue,36.99900021411287,-122.05510207900657,1.5165278743738149,1.5270819013116215,1.2027869913392248,229.94672302063555,122.39346675804886,46.94847421633794,174.35443115234375,6.31027557142523,9,1,-91,3.4782177610405833,0.4071296460248919,-0.14935861982817308,-1.0434626468513115,0.14990653097629547,0.07641609013080597,-0.2761742174625397,-0.13664086163043976,-0.3959752321243286,-0.9080379009246826,-0.11226052045822144,-0.10103395581245422,0.04753375053405762,0,0,0
1706927824.14989,Northern Blue,36.998980545837185,-122.05506788439335,1.9703171883565,1.549124304238015,1.1970816732997198,230.654475630261,127.85170633285911,35.3342278243221,189.84878540039062,6.196297928433321,9,2,-84,1.507984844774249,0.35753763926160204,-0.1252366369385763,-1.4263631492600868,-0.0693436712026596,-0.19626757502555847,-0.37827232480049133,-0.11701041460037231,-0.34996864199638367,-0.9294248223304749,-0.09424753487110138,-0.17671892046928406,0.007854998111724854,0,0,0
1706927824.14989,Northern Blue,36.998980545837185,-122.05506788439335,1.9703171883565,1.549124304238015,1.1970816732997198,230.654475630261,127.85170633285911,35.3342278243221,189.84878540039062,6.196297928433321,9,1,-93,3.6669334873385724,0.35753763926160204,-0.1252366369385763,-1.4263631492600868,-0.0693436712026596,-0.19626757502555847,-0.37827232480049133,-0.11701041460037231,-0.34996864199638367,-0.9294248223304749,-0.09424753487110138,-0.17671892046928406,0.007854998111724854,0,0,0
1706927825.1491032,Northern Blue,36.99896174407427,-122.05506038246415,0,1.2327997564810298,1.1513872923319144,230.94433620013297,140.44940944816528,180,201.0626983642578,6.333439652694751,9,2,-86,1.6091693425776779,0.33994776360098,-0.09406480791848316,-1.7957204099393238,0.010079216212034225,0.24384531378746033,-0.29787787795066833,-0.08855095505714417,-0.33343786001205444,-0.9386042356491089,-0.04162181168794632,-0.14106464385986328,0.12189280986785889,0,0,0
1706927825.1491032,Northern Blue,36.99896174407427,-122.05506038246415,0,1.2327997564810298,1.1513872923319144,230.94433620013297,140.44940944816528,180,201.0626983642578,6.333439652694751,9,1,-92,3.744181640147308,0.33994776360098,-0.09406480791848316,-1.7957204099393238,0.010079216212034225,0.24384531378746033,-0.29787787795066833,-0.08855095505714417,-0.33343786001205444,-0.9386042356491089,-0.04162181168794632,-0.14106464385986328,0.12189280986785889,0,0,0
1706927826.1576881,Northern Blue,36.99897153905796,-122.05506445098663,0,0.5898778921880826,1.4428622888819305,231.03199621476233,142.01625815062633,180,203.19192504882812,5.95323896850514,9,2,-82,1.4340945237565723,0.35932172931071893,-0.07468873802230264,-1.990156731210763,0.04026329144835472,0.09923242777585983,-0.1288132667541504,-0.06985379010438919,-0.35163936018943787,-0.9335256814956665,-0.020173102617263794,-0.0005334317684173584,-0.023002028465270996,0,0,0
1706927826.1576881,Northern Blue,36.99897153905796,-122.05506445098663,0,0.5898778921880826,1.4428622888819305,231.03199621476233,142.01625815062633,180,203.19192504882812,5.95323896850514,9,1,-91,3.713273293017826,0.35932172931071893,-0.07468873802230264,-1.990156731210763,0.04026329144835472,0.09923242777585983,-0.1288132667541504,-0.06985379010438919,-0.35163936018943787,-0.9335256814956665,-0.020173102617263794,-0.0005334317684173584,-0.023002028465270996,0,0,0
1706927827.159111,Northern Blue,36.998933509244,-122.05505258343682,0.8827143703754043,1.2687299974503625,1.5340264091555393,230.49502237234265,188.3238048278209,66.96626087791144,206.29078674316406,5.878070160151646,9,2,-81,1.272069647443164,0.36619628885573646,-0.08040443845253575,-2.0595673135061796,0.07039958238601685,0.00795525498688221,0.020275048911571503,-0.07499244064092636,-0.35806652903556824,-0.9306795597076416,-0.010777249932289124,0.07332229614257812,-0.1037900447845459,0,0,0
1706927827.159111,Northern Blue,36.998933509244,-122.05505258343682,0.8827143703754043,1.2687299974503625,1.5340264091555393,230.49502237234265,188.3238048278209,66.96626087791144,206.29078674316406,5.878070160151646,9,1,-91,3.68906589660493,0.36619628885573646,-0.08040443845253575,-2.0595673135061796,0.07039958238601685,0.00795525498688221,0.020275048911571503,-0.07499244064092636,-0.35806652903556824,-0.9306795597076416,-0.010777249932289124,0.07332229614257812,-0.1037900447845459,0,0,0
1706927828.155406,Northern Blue,36.99887629344923,-122.05505283871308,3.025975318674607,1.4137847892061552,1.5106015066085274,230.77778702322394,178.1101629886138,22.377805786355776,205.1795654296875,5.859989561722203,9,2,-86,1.4120222662474593,0.3848015446699734,-0.009027784358904063,-2.0320392015533075,0.08533556759357452,-0.10717862099409103,0.03631836175918579,-0.008367495611310005,-0.3753752112388611,-0.9268351793289185,0.08955946564674377,-0.02774670720100403,0.004838109016418457,0,0,0
1706927828.155406,Northern Blue,36.99887629344923,-122.05505283871308,3.025975318674607,1.4137847892061552,1.5106015066085274,230.77778702322394,178.1101629886138,22.377805786355776,205.1795654296875,5.859989561722203,9,1,-92,3.7606490234123604,0.3848015446699734,-0.009027784358904063,-2.0320392015533075,0.08533556759357452,-0.10717862099409103,0.03631836175918579,-0.008367495611310005,-0.3753752112388611,-0.9268351793289185,0.08955946564674377,-0.02774670720100403,0.004838109016418457,0,0,0
1706927829.159134,Northern Blue,36.998777197928625,-122.05505493799815,5.456814421099862,1.4612099855725857,1.6072992489188545,230.2322887480259,176.53074721400338,13.145078592049067,207.25802612304688,5.787815032890536,9,2,-84,1.4282084106808817,0.36491377277177406,-0.08475465329938278,-2.076099647421686,0.0896679162979126,-0.062479663640260696,-0.0336056612432003,-0.07907918840646744,-0.3568687438964844,-0.9308013319969177,-0.04112958908081055,0.0014000535011291504,-0.026474058628082275,0,0,0
