timestamp,username,latitude,longitude,speed,speedAcc,vertical_acc,                altitude,course,courseAcc,heading,horizontal_acc,major,minor,rssi,rssi_accuracy,                attitude_pitch,attitude_roll,attitude_yaw,rotation_rate_x,rotation_rate_y,                rotation_rate_z,gravity_accel_x,gravity_accel_y,gravity_accel_z,user_accel_x,                user_accel_y,user_accel_z,magnetic_field_x,magnetic_field_y,magnetic_field_z
1705430096.0653539,Papyrus Plants,36.99997890985362,-122.06218456584023,-1,-1,3.7671847343444824,249.1989288330078,-1,-1,182.18167114257812,119.65445113038047,11,2,-83,0.7763179166403393,0.4690885038268331,0.14348269358788251,-0.03213806581594046,0.18343952298164368,-0.3268856704235077,0.20092511177062988,0.12754511833190918,-0.45207342505455017,-0.8828147649765015,-0.08192130923271179,-0.016447752714157104,0.06621015071868896,0,0,0
1705430096.0653539,Papyrus Plants,36.99997890985362,-122.06218456584023,-1,-1,3.7671847343444824,249.1989288330078,-1,-1,182.18167114257812,119.65445113038047,11,1,-80,0.8174286649776215,0.4690885038268331,0.14348269358788251,-0.03213806581594046,0.18343952298164368,-0.3268856704235077,0.20092511177062988,0.12754511833190918,-0.45207342505455017,-0.8828147649765015,-0.08192130923271179,-0.016447752714157104,0.06621015071868896,0,0,0
1705430096.0653539,Papyrus Plants,36.99997890985362,-122.06218456584023,-1,-1,3.7671847343444824,249.1989288330078,-1,-1,187.66253662109375,119.65445113038047,11,2,-79,0.7755057869138899,0.5098915305783048,0.13788379988667848,-0.1160902943910933,-0.07541597634553909,0.037659745663404465,0.2172938585281372,0.11996366083621979,-0.4880825877189636,-0.8645138144493103,-0.052824974060058594,-0.017258048057556152,0.07743501663208008,0,0,0
1705430096.0653539,Papyrus Plants,36.99997890985362,-122.06218456584023,-1,-1,3.7671847343444824,249.1989288330078,-1,-1,187.66253662109375,119.65445113038047,11,1,-80,0.8398519530724755,0.5098915305783048,0.13788379988667848,-0.1160902943910933,-0.07541597634553909,0.037659745663404465,0.2172938585281372,0.11996366083621979,-0.4880825877189636,-0.8645138144493103,-0.052824974060058594,-0.017258048057556152,0.07743501663208008,0,0,0
1705430096.0653539,Papyrus Plants,36.99997890985362,-122.06218456584023,-1,-1,3.7671847343444824,249.1989288330078,-1,-1,188.85215759277344,119.65445113038047,11,1,-75,0.6465114953119491,0.4673538450182991,0.12290763933075886,-0.1513918429506044,0.25413987040519714,-0.07465389370918274,-0.037954721599817276,0.10945141315460205,-0.4505254626274109,-0.8860288858413696,-0.03984079509973526,-0.039480060338974,0.0632292628288269,0,0,0
1705430096.0653539,Papyrus Plants,36.99997890985362,-122.06218456584023,-1,-1,3.7671847343444824,249.1989288330078,-1,-1,188.85215759277344,119.65445113038047,11,2,-77,0.6970107575721183,0.4673538450182991,0.12290763933075886,-0.1513918429506044,0.25413987040519714,-0.07465389370918274,-0.037954721599817276,0.10945141315460205,-0.4505254626274109,-0.8860288858413696,-0.03984079509973526,-0.039480060338974,0.0632292628288269,0,0,0
1705430096.0653539,Papyrus Plants,36.99997890985362,-122.06218456584023,-1,-1,3.7671847343444824,249.1989288330078,-1,-1,193.05728149414062,119.65445113038047,11,1,-75,0.5606140538457642,0.5154887182238534,0.11576728321251846,-0.2324291909649677,-0.13301195204257965,-0.016038112342357635,-0.11468435823917389,0.10049871355295181,-0.492960125207901,-0.8642281889915466,-0.059727199375629425,-0.010427415370941162,-0.004424095153808594,0,0,0
1705430096.0653539,Papyrus Plants,36.99997890985362,-122.06218456584023,-1,-1,3.7671847343444824,249.1989288330078,-1,-1,193.05728149414062,119.65445113038047,11,2,-79,0.7250778165140338,0.5154887182238534,0.11576728321251846,-0.2324291909649677,-0.13301195204257965,-0.016038112342357635,-0.11468435823917389,0.10049871355295181,-0.492960125207901,-0.8642281889915466,-0.059727199375629425,-0.010427415370941162,-0.004424095153808594,0,0,0
1705430096.0653539,Papyrus Plants,36.99997890985362,-122.06218456584023,-1,-1,3.7671847343444824,249.1989288330078,-1,-1,195.1849365234375,119.65445113038047,11,2,0,-1,0.4856096478685731,0.10832605609099795,-0.2545424690651191,0.04526980221271515,0.07901381701231003,-0.010909183882176876,0.09561528265476227,-0.46674761176109314,-0.879206657409668,-0.06882081925868988,-0.008823126554489136,0.10076433420181274,0,0,0
1705430096.0653539,Papyrus Plants,36.99997890985362,-122.06218456584023,-1,-1,3.7671847343444824,249.1989288330078,-1,-1,195.1849365234375,119.65445113038047,11,1,-76,0.5464791203503425,0.4856096478685731,0.10832605609099795,-0.2545424690651191,0.04526980221271515,0.07901381701231003,-0.010909183882176876,0.09561528265476227,-0.46674761176109314,-0.879206657409668,-0.06882081925868988,-0.008823126554489136,0.10076433420181274,0,0,0
1705430096.0653539,Papyrus Plants,36.99997890985362,-122.06218456584023,-1,-1,3.7671847343444824,249.1989288330078,-1,-1,194.8227996826172,119.65445113038047,11,1,-82,0.7005336715160421,0.2580476851325681,0.1057820738949078,-0.20929892765697186,-1.0334261655807495,0.7889571189880371,0.3438509702682495,0.10208899527788162,-0.2551933526992798,-0.9614853858947754,-0.09201816469430923,-0.00440448522567749,-0.019593656063079834,0,0,0
1705430096.0653539,Papyrus Plants,36.99997890985362,-122.06218456584023,-1,-1,3.7671847343444824,249.1989288330078,-1,-1,194.8227996826172,119.65445113038047,11,2,-83,0.872774638913944,0.2580476851325681,0.1057820738949078,-0.20929892765697186,-1.0334261655807495,0.7889571189880371,0.3438509702682495,0.10208899527788162,-0.2551933526992798,-0.9614853858947754,-0.09201816469430923,-0.00440448522567749,-0.019593656063079834,0,0,0
1705430096.0653539,Papyrus Plants,36.99997890985362,-122.06218456584023,-1,-1,3.7671847343444824,249.1989288330078,-1,-1,168.15411376953125,119.65445113038047,11,1,0,-1,0.3277944717302065,0.4137966872482989,0.01086537968531206,-1.1508336067199707,2.8576271533966064,0.734419584274292,0.3806791603565216,-0.32195571064949036,-0.866849422454834,-0.04809856414794922,0.10753914713859558,-0.049852848052978516,0,0,0
1705430096.0653539,Papyrus Plants,36.99997890985362,-122.06218456584023,-1,-1,3.7671847343444824,249.1989288330078,-1,-1,168.15411376953125,119.65445113038047,11,2,-82,0.9987434081542441,0.3277944717302065,0.4137966872482989,0.01086537968531206,-1.1508336067199707,2.8576271533966064,0.734419584274292,0.3806791603565216,-0.32195571064949036,-0.866849422454834,-0.04809856414794922,0.10753914713859558,-0.049852848052978516,0,0,0
1705430096.0653539,Papyrus Plants,36.99997890985362,-122.06218456584023,-1,-1,3.7671847343444824,249.1989288330078,-1,-1,163.4536895751953,119.65445113038047,11,2,-78,0.8358671810282636,0.26228503486191757,0.3949735089799804,-0.030971636708667937,0.26282525062561035,0.2461819350719452,-0.10630540549755096,0.3716241419315338,-0.25928810238838196,-0.8914399743080139,-0.13720333576202393,0.04369661211967468,0.058050692081451416,0,0,0
1705430096.0653539,Papyrus Plants,36.99997890985362,-122.06218456584023,-1,-1,3.7671847343444824,249.1989288330078,-1,-1,163.4536895751953,119.65445113038047,11,1,-84,0.8871287357261597,0.26228503486191757,0.3949735089799804,-0.030971636708667937,0.26282525062561035,0.2461819350719452,-0.10630540549755096,0.3716241419315338,-0.25928810238838196,-0.8914399743080139,-0.13720333576202393,0.04369661211967468,0.058050692081451416,0,0,0
1705430096.0653539,Papyrus Plants,36.99997890985362,-122.06218456584023,-1,-1,3.7671847343444824,249.1989288330078,-1,-1,181.7247314453125,119.65445113038047,11,2,-77,0.7257259105135528,0.18776858020589993,0.45383390440702337,-0.3410071309752836,-0.12060661613941193,-0.05899165943264961,0.30483630299568176,0.430708646774292,-0.18666715919971466,-0.8829753398895264,-0.08466976881027222,-0.03417333960533142,0.12914544343948364,0,0,0
1705430096.0653539,Papyrus Plants,36.99997890985362,-122.06218456584023,-1,-1,3.7671847343444824,249.1989288330078,-1,-1,181.7247314453125,119.65445113038047,11,1,-81,0.945044035396478,0.18776858020589993,0.45383390440702337,-0.3410071309752836,-0.12060661613941193,-0.05899165943264961,0.30483630299568176,0.430708646774292,-0.18666715919971466,-0.8829753398895264,-0.08466976881027222,-0.03417333960533142,0.12914544343948364,0,0,0
1705430096.0653539,Papyrus Plants,36.99997890985362,-122.06218456584023,-1,-1,3.7671847343444824,249.1989288330078,-1,-1,162.51792907714844,119.65445113038047,11,2,-76,0.6340023849904081,0.04719771430610732,0.3901315984586106,0.031484794782345414,-0.10129806399345398,0.20238858461380005,0.42089226841926575,0.3798866271972656,-0.04718019440770149,-0.9238290786743164,-0.06065747141838074,-0.03565981984138489,-0.053587913513183594,0,0,0
1705430096.0653539,Papyrus Plants,36.99997890985362,-122.06218456584023,-1,-1,3.7671847343444824,249.1989288330078,-1,-1,162.51792907714844,119.65445113038047,11,1,-82,1.0172332459323226,0.04719771430610732,0.3901315984586106,0.031484794782345414,-0.10129806399345398,0.20238858461380005,0.42089226841926575,0.3798866271972656,-0.04718019440770149,-0.9238290786743164,-0.06065747141838074,-0.03565981984138489,-0.053587913513183594,0,0,0
1705430096.0653539,Papyrus Plants,36.99997890985362,-122.06218456584023,-1,-1,3.7671847343444824,249.1989288330078,-1,-1,153.2772674560547,119.65445113038047,11,2,-84,0.8193796560211245,0.24034467176911017,0.2092963789786225,0.15346207123277203,0.05343325436115265,-0.22312279045581818,-0.8419337868690491,0.20179949700832367,-0.23803740739822388,-0.9500606060028076,-0.19035540521144867,0.2005465179681778,-0.05308264493942261,0,0,0
1705430096.0653539,Papyrus Plants,36.99997890985362,-122.06218456584023,-1,-1,3.7671847343444824,249.1989288330078,-1,-1,153.2772674560547,119.65445113038047,11,1,-86,1.229537691968018,0.24034467176911017,0.2092963789786225,0.15346207123277203,0.05343325436115265,-0.22312279045581818,-0.8419337868690491,0.20179949700832367,-0.23803740739822388,-0.9500606060028076,-0.19035540521144867,0.2005465179681778,-0.05308264493942261,0,0,0
1705430096.0653539,Papyrus Plants,36.99997890985362,-122.06218456584023,-1,-1,3.7671847343444824,249.1989288330078,-1,-1,172.2179412841797,119.65445113038047,11,2,-83,0.9516175211497906,0.09200103815796677,0.20308759613544974,-0.1456375836361876,-0.08779914677143097,0.11097802966833115,-0.24675323069095612,0.20084144175052643,-0.09187130630016327,-0.9753062725067139,-0.11014316976070404,0.022077560424804688,-0.015477359294891357,0,0,0
1705430096.0653539,Papyrus Plants,36.99997890985362,-122.06218456584023,-1,-1,3.7671847343444824,249.1989288330078,-1,-1,172.2179412841797,119.65445113038047,11,1,-87,1.4398884073591574,0.09200103815796677,0.20308759613544974,-0.1456375836361876,-0.08779914677143097,0.11097802966833115,-0.24675323069095612,0.20084144175052643,-0.09187130630016327,-0.9753062725067139,-0.11014316976070404,0.022077560424804688,-0.015477359294891357,0,0,0
1705430096.0653539,Papyrus Plants,36.99997890985362,-122.06218456584023,-1,-1,3.7671847343444824,249.1989288330078,-1,-1,175.45115661621094,119.65445113038047,11,2,-78,0.8325976849370401,0.20834263653600707,0.19172504393630033,-0.22236179524956481,0.2785569429397583,0.11286225914955139,-0.0681375190615654,0.18643192946910858,-0.2068386673927307,-0.9604482650756836,0.1612853854894638,0.03334619104862213,0.11476045846939087,0,0,0
1705430096.0653539,Papyrus Plants,36.99997890985362,-122.06218456584023,-1,-1,3.7671847343444824,249.1989288330078,-1,-1,175.45115661621094,119.65445113038047,11,1,-84,1.4485835625361876,0.20834263653600707,0.19172504393630033,-0.22236179524956481,0.2785569429397583,0.11286225914955139,-0.0681375190615654,0.18643192946910858,-0.2068386673927307,-0.9604482650756836,0.1612853854894638,0.03334619104862213,0.11476045846939087,0,0,0
1705430096.0653539,Papyrus Plants,36.99997890985362,-122.06218456584023,-1,-1,3.7671847343444824,249.1989288330078,-1,-1,172.40745544433594,119.65445113038047,11,2,-83,0.9559010049348696,0.20175318721462754,0.10141338898895284,-0.1491628265661999,0.04345737025141716,0.024689488112926483,-0.06641897559165955,0.09918617457151413,-0.20038726925849915,-0.9746830463409424,0.11915185302495956,-0.003958478569984436,0.03725939989089966,0,0,0
1705430096.0653539,Papyrus Plants,36.99997890985362,-122.06218456584023,-1,-1,3.7671847343444824,249.1989288330078,-1,-1,172.40745544433594,119.65445113038047,11,1,-80,1.2109275565260837,0.20175318721462754,0.10141338898895284,-0.1491628265661999,0.04345737025141716,0.024689488112926483,-0.06641897559165955,0.09918617457151413,-0.20038726925849915,-0.9746830463409424,0.11915185302495956,-0.003958478569984436,0.03725939989089966,0,0,0
1705430110.261736,Papyrus Plants,37.000370063708374,-122.06087206346146,3.094916582107544,4.99613658090832,63.89402698505998,254.95502267329678,197.65073977329754,58.59324242781751,183.93382263183594,83.64690052535414,11,2,-87,1.1897296871873213,0.23971095219417435,0.050426161742824285,-0.3687537344279987,-0.12452805787324905,-0.005528419744223356,-0.3785775899887085,0.048963550478219986,-0.23742185533046722,-0.9701718688011169,0.0983448252081871,0.015345394611358643,0.04692357778549194,0,0,0
1705430110.261736,Papyrus Plants,37.000370063708374,-122.06087206346146,3.094916582107544,4.99613658090832,63.89402698505998,254.95502267329678,197.65073977329754,58.59324242781751,183.93382263183594,83.64690052535414,11,1,-85,1.32319149725003,0.23971095219417435,0.050426161742824285,-0.3687537344279987,-0.12452805787324905,-0.005528419744223356,-0.3785775899887085,0.048963550478219986,-0.23742185533046722,-0.9701718688011169,0.0983448252081871,0.015345394611358643,0.04692357778549194,0,0,0
1705430111.135994,Papyrus Plants,37.00040222748706,-122.06082239883374,3.094916582107544,5.263358445283148,15.210906683607801,249.50417677496128,154.6099556562357,62.316292234438556,181.37506103515625,73.88534203788643,11,2,-85,1.315714802339477,0.2785090340011015,0.09905698796828208,-0.32623879782578485,-0.08396691828966141,-0.1479800045490265,-0.5231990218162537,0.0950842872262001,-0.2749224305152893,-0.9567531943321228,0.12680906057357788,-0.07876107096672058,-0.015170633792877197,0,0,0
1705430111.135994,Papyrus Plants,37.00040222748706,-122.06082239883374,3.094916582107544,5.263358445283148,15.210906683607801,249.50417677496128,154.6099556562357,62.316292234438556,181.37506103515625,73.88534203788643,11,1,-86,1.4583271420425545,0.2785090340011015,0.09905698796828208,-0.32623879782578485,-0.08396691828966141,-0.1479800045490265,-0.5231990218162537,0.0950842872262001,-0.2749224305152893,-0.9567531943321228,0.12680906057357788,-0.07876107096672058,-0.015170633792877197,0,0,0
1705430112.1290112,Papyrus Plants,37.0004347894922,-122.06070344011287,3.094916582107544,5.308384205952708,18.282758251363646,249.40976292932203,101.85068513241643,64.22976910165742,184.30123901367188,69.03621567649557,11,1,-77,1.021410629167813,0.24426801670670883,0.09556349489638427,-0.36936442373527495,-0.35257014632225037,0.17452368140220642,-0.0619935616850853,0.09258558601140976,-0.24184612929821014,-0.9658873677253723,0.023594871163368225,-0.06494712829589844,-0.00016182661056518555,0,0,0
1705430112.1290112,Papyrus Plants,37.0004347894922,-122.06070344011287,3.094916582107544,5.308384205952708,18.282758251363646,249.40976292932203,101.85068513241643,64.22976910165742,184.30123901367188,69.03621567649557,11,2,-83,1.3079399879476181,0.24426801670670883,0.09556349489638427,-0.36936442373527495,-0.35257014632225037,0.17452368140220642,-0.0619935616850853,0.09258558601140976,-0.24184612929821014,-0.9658873677253723,0.023594871163368225,-0.06494712829589844,-0.00016182661056518555,0,0,0
1705430113.12846,Papyrus Plants,37.000461022691844,-122.06060102018625,3.1910018920898438,5.378695713204522,17.53426312582863,249.26574278200388,99.35587317812275,48.56990291119136,194.7888946533203,64.86341156767186,11,1,-78,0.8805422200552117,0.19282800227595756,0.14344010213600245,-0.5484059505922986,0.13280081748962402,0.3900211453437805,0.04445266351103783,0.14029935002326965,-0.19163525104522705,-0.9713866710662842,0.08321143686771393,-0.08581535518169403,0.14239192008972168,0,0,0
1705430113.12846,Papyrus Plants,37.000461022691844,-122.06060102018625,3.1910018920898438,5.378695713204522,17.53426312582863,249.26574278200388,99.35587317812275,48.56990291119136,194.7888946533203,64.86341156767186,11,2,-79,1.0766468638525648,0.19282800227595756,0.14344010213600245,-0.5484059505922986,0.13280081748962402,0.3900211453437805,0.04445266351103783,0.14029935002326965,-0.19163525104522705,-0.9713866710662842,0.08321143686771393,-0.08581535518169403,0.14239192008972168,0,0,0
1705430114.132791,Papyrus Plants,37.00046150761982,-122.06048785477357,5.222485542297363,4.985898631308415,18.34414853343651,249.34876228980346,84.30543812513707,33.55568008489238,195.81544494628906,59.75338013459158,11,2,-77,0.85743524228134,0.12562482917651044,0.13418611927084928,-0.5692964434565829,0.21265839040279388,0.04218344762921333,0.029988106340169907,0.13272951543331146,-0.12529467046260834,-0.9832009673118591,0.04431825876235962,-0.006144583225250244,-0.10542207956314087,0,0,0
1705430114.132791,Papyrus Plants,37.00046150761982,-122.06048785477357,5.222485542297363,4.985898631308415,18.34414853343651,249.34876228980346,84.30543812513707,33.55568008489238,195.81544494628906,59.75338013459158,11,1,-89,1.1483848104961023,0.12562482917651044,0.13418611927084928,-0.5692964434565829,0.21265839040279388,0.04218344762921333,0.029988106340169907,0.13272951543331146,-0.12529467046260834,-0.9832009673118591,0.04431825876235962,-0.006144583225250244,-0.10542207956314087,0,0,0
1705430115.170537,Papyrus Plants,37.00038536186541,-122.06039013704057,6.1984405517578125,4.127448418417627,17.782569729977897,248.6724687766121,92.56436245241257,27.922157312136722,190.16139221191406,52.99448380867019,11,2,-77,0.7467847613829373,0.23967145831035516,0.16435603186988307,-0.46366876174707955,-0.19571329653263092,-0.1517808884382248,-0.2516801655292511,0.15894024074077606,-0.23738348484039307,-0.9583251476287842,-0.059101954102516174,-0.011670529842376709,-0.03047490119934082,0,0,0
1705430115.170537,Papyrus Plants,37.00038536186541,-122.06039013704057,6.1984405517578125,4.127448418417627,17.782569729977897,248.6724687766121,92.56436245241257,27.922157312136722,190.16139221191406,52.99448380867019,11,1,-86,1.3203925499974805,0.23967145831035516,0.16435603186988307,-0.46366876174707955,-0.19571329653263092,-0.1517808884382248,-0.2516801655292511,0.15894024074077606,-0.23738348484039307,-0.9583251476287842,-0.059101954102516174,-0.011670529842376709,-0.03047490119934082,0,0,0
1705430116.113247,Papyrus Plants,37.00032998568192,-122.06033575747469,6.1984405517578125,2.8367355614768344,15.638690623324118,247.51373425902244,132.9555469799774,30.23084996819405,186.03826904296875,48.218082048392134,11,2,-80,0.7906587400751713,0.283904088338264,0.49611555937376706,-0.4544116061595893,-0.12126948684453964,-0.2108764499425888,-0.16054463386535645,0.4569578170776367,-0.2801055908203125,-0.8442336320877075,0.03857135772705078,-0.1607208549976349,-0.0844314694404602,0,0,0
1705430116.113247,Papyrus Plants,37.00032998568192,-122.06033575747469,6.1984405517578125,2.8367355614768344,15.638690623324118,247.51373425902244,132.9555469799774,30.23084996819405,186.03826904296875,48.218082048392134,11,1,-86,1.4607417454357385,0.283904088338264,0.49611555937376706,-0.4544116061595893,-0.12126948684453964,-0.2108764499425888,-0.16054463386535645,0.4569578170776367,-0.2801055908203125,-0.8442336320877075,0.03857135772705078,-0.1607208549976349,-0.0844314694404602,0,0,0
1705430117.1235728,Papyrus Plants,37.00030254370683,-122.06027004123202,2.3668320178985596,3.4642968535976455,17.728181080904932,246.93214219155544,105.22744034939412,41.17852773985882,206.7989044189453,44.04906887008165,11,2,-81,0.857026950817648,0.4080701957115067,-0.014095925919712394,-0.7236741919202939,1.1782463788986206,-0.2198610007762909,0.3585197329521179,-0.012938058003783226,-0.3968387246131897,-0.9177971482276917,0.018049784004688263,0.05643036961555481,0.11069881916046143,0,0,0
1705430117.1235728,Papyrus Plants,37.00030254370683,-122.06027004123202,2.3668320178985596,3.4642968535976455,17.728181080904932,246.93214219155544,105.22744034939412,41.17852773985882,206.7989044189453,44.04906887008165,11,1,-83,1.4048764928407633,0.4080701957115067,-0.014095925919712394,-0.7236741919202939,1.1782463788986206,-0.2198610007762909,0.3585197329521179,-0.012938058003783226,-0.3968387246131897,-0.9177971482276917,0.018049784004688263,0.05643036961555481,0.11069881916046143,0,0,0
1705430118.124306,Papyrus Plants,37.00030051384284,-122.06021172029314,1.0482527017593384,0.841718266363166,14.145645676624074,246.60339356087093,215.38226624484898,43.88413580071235,225.520263671875,38.42370222963076,11,2,-87,1.0988086753580992,0.3919002886453777,0.7242899224573123,-1.2196087723022455,-0.4623614251613617,0.19048629701137543,-0.4274502694606781,0.6123684644699097,-0.38194531202316284,-0.6921868920326233,0.003339052200317383,-0.03635913133621216,-0.059216856956481934,0,0,0
1705430118.124306,Papyrus Plants,37.00030051384284,-122.06021172029314,1.0482527017593384,0.841718266363166,14.145645676624074,246.60339356087093,215.38226624484898,43.88413580071235,225.520263671875,38.42370222963076,11,1,-80,1.1914409839489701,0.3919002886453777,0.7242899224573123,-1.2196087723022455,-0.4623614251613617,0.19048629701137543,-0.4274502694606781,0.6123684644699097,-0.38194531202316284,-0.6921868920326233,0.003339052200317383,-0.03635913133621216,-0.059216856956481934,0,0,0
1705430119.1135921,Papyrus Plants,37.00029209803224,-122.06016201802629,0.49068039655685425,0.8738691108409108,17.27297547687592,246.1983558500953,179.4048253092919,46.65711531939363,214.437744140625,35.12613633260611,11,2,-81,1.0627256531837936,0.34381802934051875,0.47219833010242795,-0.9509496720162869,0.5177478194236755,0.990171492099762,0.261920303106308,0.42822515964508057,-0.3370841145515442,-0.8384495377540588,-0.1253228485584259,-0.0468575656414032,-0.04555308818817139,0,0,0
1705430119.1135921,Papyrus Plants,37.00029209803224,-122.06016201802629,0.49068039655685425,0.8738691108409108,17.27297547687592,246.1983558500953,179.4048253092919,46.65711531939363,214.437744140625,35.12613633260611,11,1,-83,1.2206276367714897,0.34381802934051875,0.47219833010242795,-0.9509496720162869,0.5177478194236755,0.990171492099762,0.261920303106308,0.42822515964508057,-0.3370841145515442,-0.8384495377540588,-0.1253228485584259,-0.0468575656414032,-0.04555308818817139,0,0,0
1705430120.193071,Papyrus Plants,37.000268839956604,-122.060109186963,0.7137832045555115,1.1133411762760113,15.064537846048196,245.41402270769274,142.86737872924718,48.729376442039424,215.31591796875,33.79708532939464,11,2,-78,0.894049121354511,0.3523501179177008,0.5267107521831577,-0.9813545505778706,-0.10723996162414551,-0.05381080508232117,-0.09068764746189117,0.4718093276023865,-0.34510448575019836,-0.8113561868667603,-0.05828085541725159,-0.06489917635917664,-0.04577571153640747,0,0,0
1705430120.193071,Papyrus Plants,37.000268839956604,-122.060109186963,0.7137832045555115,1.1133411762760113,15.064537846048196,245.41402270769274,142.86737872924718,48.729376442039424,215.31591796875,33.79708532939464,11,1,-79,1.0349446480158677,0.3523501179177008,0.5267107521831577,-0.9813545505778706,-0.10723996162414551,-0.05381080508232117,-0.09068764746189117,0.4718093276023865,-0.34510448575019836,-0.8113561868667603,-0.05828085541725159,-0.06489917635917664,-0.04577571153640747,0,0,0
1705430121.126507,Papyrus Plants,37.00024404531921,-122.06004072819952,0.5434617400169373,2.4068636936154864,18.568323025895374,244.81085792314977,123.01903163821117,59.44480913919987,206.5682373046875,40.29768500886025,11,2,-78,0.8065018676564314,0.2876369503945503,0.3324263058104174,-0.8890188956402699,-0.028899231925606728,0.036273010075092316,-0.16227233409881592,0.31293052434921265,-0.2836870551109314,-0.9064193964004517,-0.06303727626800537,-0.011265367269515991,0.025346457958221436,0,0,0
1705430121.126507,Papyrus Plants,37.00024404531921,-122.06004072819952,0.5434617400169373,2.4068636936154864,18.568323025895374,244.81085792314977,123.01903163821117,59.44480913919987,206.5682373046875,40.29768500886025,11,1,-85,1.1803240735253304,0.2876369503945503,0.3324263058104174,-0.8890188956402699,-0.028899231925606728,0.036273010075092316,-0.16227233409881592,0.31293052434921265,-0.2836870551109314,-0.9064193964004517,-0.06303727626800537,-0.011265367269515991,0.025346457958221436,0,0,0
1705430122.1162682,Papyrus Plants,37.000244045319334,-122.06004072819951,0.5434617400169373,2.690955415750227,18.56832302589537,244.8108579441905,-1,-1,204.56565856933594,40.29768500886025,11,2,-78,0.7563190042539312,0.05088427344678749,0.2278559671901791,-0.7989395275284157,-0.07994349300861359,0.004026512149721384,0.0401509590446949,0.2255970537662506,-0.05086231976747513,-0.9728921055793762,-0.08271370828151703,-0.01652051880955696,-0.04979771375656128,0,0,0
1705430122.1162682,Papyrus Plants,37.000244045319334,-122.06004072819951,0.5434617400169373,2.690955415750227,18.56832302589537,244.8108579441905,-1,-1,204.56565856933594,40.29768500886025,11,1,-80,1.0637040883656723,0.05088427344678749,0.2278559671901791,-0.7989395275284157,-0.07994349300861359,0.004026512149721384,0.0401509590446949,0.2255970537662506,-0.05086231976747513,-0.9728921055793762,-0.08271370828151703,-0.01652051880955696,-0.04979771375656128,0,0,0
1705430123.129475,Papyrus Plants,37.0002040311395,-122.05994378257397,0.7137832045555115,2.957785521267837,15.956927500740369,244.2145092813298,-1,-1,204.44569396972656,34.22941733285375,11,1,-78,0.8986122440764951,0.25496735119400116,0.2673130183770482,-0.8201641285158889,-0.13207247853279114,0.48038366436958313,0.5306094884872437,0.25560158491134644,-0.25221380591392517,-0.9333038330078125,-0.05975499749183655,0.03822454810142517,0.15731817483901978,0,0,0
1705430123.129475,Papyrus Plants,37.0002040311395,-122.05994378257397,0.7137832045555115,2.957785521267837,15.956927500740369,244.2145092813298,-1,-1,204.44569396972656,34.22941733285375,11,2,-85,0.9496970512480096,0.25496735119400116,0.2673130183770482,-0.8201641285158889,-0.13207247853279114,0.48038366436958313,0.5306094884872437,0.25560158491134644,-0.25221380591392517,-0.9333038330078125,-0.05975499749183655,0.03822454810142517,0.15731817483901978,0,0,0
1705430124.122464,Papyrus Plants,37.000136027511125,-122.05978353123102,4.3231263160695645,2.4188966508902543,21.861356129596857,243.54796657897532,116.36719010357861,24.586912161930766,202.203857421875,46.537091209413674,11,2,-81,0.9670640074612376,0.26700040366362,0.18332776114181204,-0.7739340326212119,-0.025158019736409187,-0.1546693593263626,0.2799314260482788,0.1758429855108261,-0.2638393044471741,-0.9484028816223145,0.020308777689933777,0.019301950931549072,-0.0048288702964782715,0,0,0
1705430124.122464,Papyrus Plants,37.000136027511125,-122.05978353123102,4.3231263160695645,2.4188966508902543,21.861356129596857,243.54796657897532,116.36719010357861,24.586912161930766,202.203857421875,46.537091209413674,11,1,-84,1.03613697168832,0.26700040366362,0.18332776114181204,-0.7739340326212119,-0.025158019736409187,-0.1546693593263626,0.2799314260482788,0.1758429855108261,-0.2638393044471741,-0.9484028816223145,0.020308777689933777,0.019301950931549072,-0.0048288702964782715,0,0,0
1705430125.127071,Papyrus Plants,37.000086083805726,-122.05962556056005,5.429210186002672,2.4086548023408647,16.992188593276634,242.84089121129364,113.75635858316147,19.808541399699525,187.3633270263672,35.84000944471745,11,2,-82,1.0203787669594273,0.33810216748295263,0.1261246735725951,-0.5144095087706358,0.3493521213531494,0.36492466926574707,-0.2474682778120041,0.11866903305053711,-0.3316973149776459,-0.9358924031257629,-0.24713273346424103,0.06550765037536621,0.07967597246170044,0,0,0
1705430125.127071,Papyrus Plants,37.000086083805726,-122.05962556056005,5.429210186002672,2.4086548023408647,16.992188593276634,242.84089121129364,113.75635858316147,19.808541399699525,187.3633270263672,35.84000944471745,11,1,-91,1.3655808456432665,0.33810216748295263,0.1261246735725951,-0.5144095087706358,0.3493521213531494,0.36492466926574707,-0.2474682778120041,0.11866903305053711,-0.3316973149776459,-0.9358924031257629,-0.24713273346424103,0.06550765037536621,0.07967597246170044,0,0,0
1705430126.12882,Papyrus Plants,37.00002472300059,-122.05948714414083,5.429210186002674,2.388995957459806,21.892670168236638,242.26454487908632,112.34456221477268,16.543811503361948,179.42529296875,46.19223651059648,11,2,-84,1.139490131449428,0.28005802821702075,0.2593838069610839,-0.38855170740337297,0.059726227074861526,0.1632610559463501,0.43427884578704834,0.2464922070503235,-0.27641141414642334,-0.9288908839225769,-0.2665116786956787,0.06460410356521606,-0.06054997444152832,0,0,0
1705430126.12882,Papyrus Plants,37.00002472300059,-122.05948714414083,5.429210186002674,2.388995957459806,21.892670168236638,242.26454487908632,112.34456221477268,16.543811503361948,179.42529296875,46.19223651059648,11,1,-86,1.499035696662976,0.28005802821702075,0.2593838069610839,-0.38855170740337297,0.059726227074861526,0.1632610559463501,0.43427884578704834,0.2464922070503235,-0.27641141414642334,-0.9288908839225769,-0.2665116786956787,0.06460410356521606,-0.06054997444152832,0,0,0
1705430127.123879,Papyrus Plants,37.000105149989515,-122.05949009753446,5.429210186002675,2.55558195211929,16.908442742803278,242.2783453213051,71.05142919098711,19.295256951011716,174.95082092285156,34.508061645831326,11,2,-83,1.1858102316145966,0.2759672407147484,0.20152992998855646,-0.3083146747026846,-0.19578507542610168,-0.15670880675315857,-0.06354968249797821,0.19259457290172577,-0.2724777162075043,-0.9426893591880798,-0.21600152552127838,0.055207759141922,0.02111959457397461,0,0,0
1705430127.123879,Papyrus Plants,37.000105149989515,-122.05949009753446,5.429210186002675,2.55558195211929,16.908442742803278,242.2783453213051,71.05142919098711,19.295256951011716,174.95082092285156,34.508061645831326,11,1,-88,1.6987437289529215,0.2759672407147484,0.20152992998855646,-0.3083146747026846,-0.19578507542610168,-0.15670880675315857,-0.06354968249797821,0.19259457290172577,-0.2724777162075043,-0.9426893591880798,-0.21600152552127838,0.055207759141922,0.02111959457397461,0,0,0
1705430128.125719,Papyrus Plants,37.00006454407514,-122.05945737455528,1.0264606475829945,0.9274483008608847,17.08016466564248,241.93273157440126,97.7806887221847,21.61677114723349,173.8285675048828,34.14909042041402,11,2,-78,0.9563272818148264,0.2865663085830024,0.1766807498549458,-0.2896933645266471,0.09535916894674301,0.1890447586774826,-0.05397528409957886,0.16859537363052368,-0.28266024589538574,-0.9442874789237976,-0.0756235420703888,-0.004540741443634033,-0.017214596271514893,0,0,0
1705430128.125719,Papyrus Plants,37.00006454407514,-122.05945737455528,1.0264606475829945,0.9274483008608847,17.08016466564248,241.93273157440126,97.7806887221847,21.61677114723349,173.8285675048828,34.14909042041402,11,1,-90,1.9609020943660664,0.2865663085830024,0.1766807498549458,-0.2896933645266471,0.09535916894674301,0.1890447586774826,-0.05397528409957886,0.16859537363052368,-0.28266024589538574,-0.9442874789237976,-0.0756235420703888,-0.004540741443634033,-0.017214596271514893,0,0,0
1705430129.1296968,Papyrus Plants,37.00005051539411,-122.05938983257855,1.0264606475829945,0.8399812299272745,17.26000527783827,242.04390215221792,99.76774285969707,24.870715604408385,169.93153381347656,34.01198943622827,11,2,0,-1,0.3328826699490558,0.2630552994162412,-0.2369280448286424,0.08916684985160828,0.044003162533044815,-0.15790432691574097,0.2457573264837265,-0.32676881551742554,-0.9125927686691284,-0.10105820000171661,0.007875323295593262,-0.002263188362121582,0,0,0
1705430129.1296968,Papyrus Plants,37.00005051539411,-122.05938983257855,1.0264606475829945,0.8399812299272745,17.26000527783827,242.04390215221792,99.76774285969707,24.870715604408385,169.93153381347656,34.01198943622827,11,1,-86,1.9425809060382482,0.3328826699490558,0.2630552994162412,-0.2369280448286424,0.08916684985160828,0.044003162533044815,-0.15790432691574097,0.2457573264837265,-0.32676881551742554,-0.9125927686691284,-0.10105820000171661,0.007875323295593262,-0.002263188362121582,0,0,0
1705430130.129683,Papyrus Plants,37.000035089037134,-122.05935791176218,0.7527259588241525,1.059306568030405,17.471405726650072,242.59902693796903,103.4250938416736,28.649312210185006,172.23507690429688,34.03697610906391,11,2,-83,1.0478245445749967,0.3775642663646275,0.2518272262949185,-0.2708857123846802,-0.48115503787994385,-0.01960580423474312,0.02195083722472191,0.23162348568439484,-0.3686573803424835,-0.9002456665039062,-0.005701825022697449,-0.022394925355911255,0.10501867532730103,0,0,0
1705430130.129683,Papyrus Plants,37.000035089037134,-122.05935791176218,0.7527259588241525,1.059306568030405,17.471405726650072,242.59902693796903,103.4250938416736,28.649312210185006,172.23507690429688,34.03697610906391,11,1,-78,1.299843337214735,0.3775642663646275,0.2518272262949185,-0.2708857123846802,-0.48115503787994385,-0.01960580423474312,0.02195083722472191,0.23162348568439484,-0.3686573803424835,-0.9002456665039062,-0.005701825022697449,-0.022394925355911255,0.10501867532730103,0,0,0
1705430131.125313,Papyrus Plants,37.00001260091829,-122.05932435375952,0.7527259588241525,1.2543365718041395,17.366515713667933,243.1039131321013,111.10877273410537,31.964382349736677,159.10008239746094,32.78062324267538,11,2,-77,0.7624436119968392,0.3104731391173319,0.2710494847525518,-0.03868951730174079,-0.0061265286058187485,-0.03298462927341461,-0.03132593631744385,0.2549417316913605,-0.30550917983055115,-0.9174251556396484,-0.17568755149841309,0.018689662218093872,0.025213241577148438,0,0,0
1705430131.125313,Papyrus Plants,37.00001260091829,-122.05932435375952,0.7527259588241525,1.2543365718041395,17.366515713667933,243.1039131321013,111.10877273410537,31.964382349736677,159.10008239746094,32.78062324267538,11,1,-80,1.143697782911568,0.3104731391173319,0.2710494847525518,-0.03868951730174079,-0.0061265286058187485,-0.03298462927341461,-0.03132593631744385,0.2549417316913605,-0.30550917983055115,-0.9174251556396484,-0.17568755149841309,0.018689662218093872,0.025213241577148438,0,0,0
1705430132.11627,Papyrus Plants,36.999975957595446,-122.05928747292081,0.8800563216209326,1.404818401737322,17.3602916630734,243.49642368219793,119.01495131323902,34.606593235241796,160.11671447753906,31.841910030437464,11,2,-82,0.8856017718920014,0.29650402111477075,0.24475636500809717,-0.07157471658133524,0.12387311458587646,-0.02667919546365738,-0.24078547954559326,0.23174603283405304,-0.29217857122421265,-0.927860677242279,-0.04539041221141815,0.006640791893005371,-0.009181499481201172,0,0,0
1705430132.11627,Papyrus Plants,36.999975957595446,-122.05928747292081,0.8800563216209326,1.404818401737322,17.3602916630734,243.49642368219793,119.01495131323902,34.606593235241796,160.11671447753906,31.841910030437464,11,1,-80,1.047690982618434,0.29650402111477075,0.24475636500809717,-0.07157471658133524,0.12387311458587646,-0.02667919546365738,-0.24078547954559326,0.23174603283405304,-0.29217857122421265,-0.927860677242279,-0.04539041221141815,0.006640791893005371,-0.009181499481201172,0,0,0
1705430133.124411,Papyrus Plants,36.99993572385601,-122.05923856171438,1.296967625617954,1.5103628550675927,17.371756870014593,243.84759970474988,105.1461181640625,36.549914479996616,174.4108123779297,30.64714741379463,11,1,-77,0.8449425770506321,0.3446657180531437,0.22398932674374342,-0.2901131044161651,-0.0628264769911766,-0.005766001529991627,0.442123144865036,0.2090577632188797,-0.33788207173347473,-0.9176767468452454,0.12182910740375519,0.045035332441329956,0.02276402711868286,0,0,0
1705430133.124411,Papyrus Plants,36.99993572385601,-122.05923856171438,1.296967625617954,1.5103628550675927,17.371756870014593,243.84759970474988,105.1461181640625,36.549914479996616,174.4108123779297,30.64714741379463,11,2,-86,1.112481295615889,0.3446657180531437,0.22398932674374342,-0.2901131044161651,-0.0628264769911766,-0.005766001529991627,0.442123144865036,0.2090577632188797,-0.33788207173347473,-0.9176767468452454,0.12182910740375519,0.045035332441329956,0.02276402711868286,0,0,0
1705430134.13818,Papyrus Plants,36.99992262650706,-122.05915906147844,1.353514194488495,1.5311466438226151,17.55157186478701,244.11746790912002,105.1461181640625,38.29912135395575,168.27322387695312,28.00873681579029,11,1,-77,0.7402239621421592,0.4014864409228932,0.2462003378229824,-0.19893446825436753,-0.03750760853290558,-0.09840217232704163,0.7182134985923767,0.2243402600288391,-0.3907870054244995,-0.8927244544029236,0.19500181078910828,0.0022829174995422363,0.04953908920288086,0,0,0
1705430134.13818,Papyrus Plants,36.99992262650706,-122.05915906147844,1.353514194488495,1.5311466438226151,17.55157186478701,244.11746790912002,105.1461181640625,38.29912135395575,168.27322387695312,28.00873681579029,11,2,-86,1.3009409478817977,0.4014864409228932,0.2462003378229824,-0.19893446825436753,-0.03750760853290558,-0.09840217232704163,0.7182134985923767,0.2243402600288391,-0.3907870054244995,-0.8927244544029236,0.19500181078910828,0.0022829174995422363,0.04953908920288086,0,0,0
1705430135.124158,Papyrus Plants,36.999904456224165,-122.05908849742721,1.2969676256179543,1.5290439141232144,19.38667168482838,244.63900585472584,103.29391479492188,40.18928971983405,163.52955627441406,29.49133574711218,11,1,-78,0.717392862801788,0.48183451987677295,0.19208905737560414,-0.12446035069094093,0.009770716540515423,0.07095946371555328,0.017340868711471558,0.16917413473129272,-0.4634056091308594,-0.8698478937149048,0.11523444950580597,0.0023154616355895996,0.03116387128829956,0,0,0
1705430135.124158,Papyrus Plants,36.999904456224165,-122.05908849742721,1.2969676256179543,1.5290439141232144,19.38667168482838,244.63900585472584,103.29391479492188,40.18928971983405,163.52955627441406,29.49133574711218,11,2,-82,1.2422063667789323,0.48183451987677295,0.19208905737560414,-0.12446035069094093,0.009770716540515423,0.07095946371555328,0.017340868711471558,0.16917413473129272,-0.4634056091308594,-0.8698478937149048,0.11523444950580597,0.0023154616355895996,0.03116387128829956,0,0,0
1705430136.1269689,Papyrus Plants,36.99988940200096,-122.05903208780745,1.2688766717910513,1.5565494096981776,17.641851058632476,244.75502719264477,103.29391479492188,41.98719737832195,160.41043090820312,26.527324451472204,11,1,-79,0.7379787966658483,0.4666794416224162,0.24074936078950937,-0.08629225037095173,-0.05298032984137535,-0.018288936465978622,-0.31981122493743896,0.21293441951274872,-0.4499232769012451,-0.8673108220100403,0.02151690423488617,0.007662475109100342,0.04042178392410278,0,0,0
1705430136.1269689,Papyrus Plants,36.99988940200096,-122.05903208780745,1.2688766717910513,1.5565494096981776,17.641851058632476,244.75502719264477,103.29391479492188,41.98719737832195,160.41043090820312,26.527324451472204,11,2,-82,1.2064282150923997,0.4666794416224162,0.24074936078950937,-0.08629225037095173,-0.05298032984137535,-0.018288936465978622,-0.31981122493743896,0.21293441951274872,-0.4499232769012451,-0.8673108220100403,0.02151690423488617,0.007662475109100342,0.04042178392410278,0,0,0
1705430137.1308599,Papyrus Plants,36.99987717934246,-122.05898105429343,1.2688766717910518,1.5715579220973257,17.297812118398685,244.47181407827884,99.05203247070312,40.239648556013414,172.42030334472656,25.701532197136483,11,1,-76,0.6405063948674956,0.5491224831281781,0.13359839930928877,-0.29228757145131556,0.009654024615883827,-0.04379855841398239,-0.21729281544685364,0.11361845582723618,-0.5219389200210571,-0.8453819751739502,-0.0014663264155387878,0.043087542057037354,0.035125017166137695,0,0,0
1705430137.1308599,Papyrus Plants,36.99987717934246,-122.05898105429343,1.2688766717910518,1.5715579220973257,17.297812118398685,244.47181407827884,99.05203247070312,40.239648556013414,172.42030334472656,25.701532197136483,11,2,-81,1.1323897665122509,0.5491224831281781,0.13359839930928877,-0.29228757145131556,0.009654024615883827,-0.04379855841398239,-0.21729281544685364,0.11361845582723618,-0.5219389200210571,-0.8453819751739502,-0.0014663264155387878,0.043087542057037354,0.035125017166137695,0,0,0
1705430138.126159,Papyrus Plants,36.999881190590614,-122.05899424080566,0,1.5503534838915656,20.281787264725644,244.4718139525503,99.05203247070312,40.239648556013414,190.68695068359375,29.7668535876111,11,2,0,-1,0.24422064896697201,0.7873450514625963,-0.6486972465101712,0.09493474662303925,-0.31869372725486755,-0.17423881590366364,0.6874586343765259,-0.24180017411708832,-0.6847870349884033,0.03715074062347412,-0.08907145261764526,0.1147187352180481,0,0,0
1705430138.126159,Papyrus Plants,36.999881190590614,-122.05899424080566,0,1.5503534838915656,20.281787264725644,244.4718139525503,99.05203247070312,40.239648556013414,190.68695068359375,29.7668535876111,11,1,-74,0.5229386604721638,0.24422064896697201,0.7873450514625963,-0.6486972465101712,0.09493474662303925,-0.31869372725486755,-0.17423881590366364,0.6874586343765259,-0.24180017411708832,-0.6847870349884033,0.03715074062347412,-0.08907145261764526,0.1147187352180481,0,0,0
1705430139.114911,Papyrus Plants,36.999821599804704,-122.05878681837308,2.8806083202359125,1.5306215592330215,19.59844423407311,243.85367785859853,92.63095092773438,22.893437637898572,207.17047119140625,28.780137911751698,11,1,-79,0.6057742189799064,0.22966250764484233,0.24147835236334228,-0.8690050630703852,0.124121755361557,0.6549192667007446,-0.3221129775047302,0.23285935819149017,-0.22764889895915985,-0.9454905986785889,-0.031183913350105286,-0.04684147238731384,-0.03853338956832886,0,0,0
1705430139.114911,Papyrus Plants,36.999821599804704,-122.05878681837308,2.8806083202359125,1.5306215592330215,19.59844423407311,243.85367785859853,92.63095092773438,22.893437637898572,207.17047119140625,28.780137911751698,11,2,-78,0.9342411770528471,0.22966250764484233,0.24147835236334228,-0.8690050630703852,0.124121755361557,0.6549192667007446,-0.3221129775047302,0.23285935819149017,-0.22764889895915985,-0.9454905986785889,-0.031183913350105286,-0.04684147238731384,-0.03853338956832886,0,0,0
1705430140.1261,Papyrus Plants,36.99978864942518,-122.0587079895347,2.880608320235912,1.4863535868574893,18.01912233742988,243.60043129138649,89.3731689453125,19.52288124237021,199.25323486328125,26.520259941759026,11,1,-78,0.6350058096707514,0.29203354217227007,0.28942694096808486,-0.731402280688747,1.5356507301330566,0.31872352957725525,0.3887820243835449,0.27331918478012085,-0.28790026903152466,-0.9178289771080017,-0.034198641777038574,0.09962204098701477,0.07844305038452148,0,0,0
1705430140.1261,Papyrus Plants,36.99978864942518,-122.0587079895347,2.880608320235912,1.4863535868574893,18.01912233742988,243.60043129138649,89.3731689453125,19.52288124237021,199.25323486328125,26.520259941759026,11,2,-77,0.7251931056747694,0.29203354217227007,0.28942694096808486,-0.731402280688747,1.5356507301330566,0.31872352957725525,0.3887820243835449,0.27331918478012085,-0.28790026903152466,-0.9178289771080017,-0.034198641777038574,0.09962204098701477,0.07844305038452148,0,0,0
1705430141.118305,Papyrus Plants,36.999767415524275,-122.05864214172064,3.2063729763026956,2.4158549887115295,16.256842795892815,243.30104003101587,89.3731689453125,21.413529906695437,192.837158203125,24.1185722605476,11,2,0,-1,0.17883249221993697,0.2774958883849037,-0.6042106945658352,-0.6979484558105469,-0.4097554683685303,-0.1718437820672989,0.26957929134368896,-0.17788080871105194,-0.9464066028594971,-0.15832743048667908,-0.07657478749752045,-0.019581496715545654,0,0,0
1705430141.118305,Papyrus Plants,36.999767415524275,-122.05864214172064,3.2063729763026956,2.4158549887115295,16.256842795892815,243.30104003101587,89.3731689453125,21.413529906695437,192.837158203125,24.1185722605476,11,1,-82,0.7749652992216804,0.17883249221993697,0.2774958883849037,-0.6042106945658352,-0.6979484558105469,-0.4097554683685303,-0.1718437820672989,0.26957929134368896,-0.17788080871105194,-0.9464066028594971,-0.15832743048667908,-0.07657478749752045,-0.019581496715545654,0,0,0
1705430142.1148028,Papyrus Plants,36.99979170239227,-122.05857830878496,3.307038784026656,2.2402410234961363,16.067172942728803,243.10001451242715,86.608154296875,22.883381241299556,202.64398193359375,22.57684182688388,11,2,-80,0.7847507126529119,0.16265123910436408,0.4278555196450706,-0.8105773034981615,-0.37819987535476685,-2.8368442058563232,-0.6734862327575684,0.40944424271583557,-0.1619350165128708,-0.8978488445281982,-0.030675262212753296,0.037820011377334595,0.07239413261413574,0,0,0
1705430142.1148028,Papyrus Plants,36.99979170239227,-122.05857830878496,3.307038784026656,2.2402410234961363,16.067172942728803,243.10001451242715,86.608154296875,22.883381241299556,202.64398193359375,22.57684182688388,11,1,-82,0.8841607072714227,0.16265123910436408,0.4278555196450706,-0.8105773034981615,-0.37819987535476685,-2.8368442058563232,-0.6734862327575684,0.40944424271583557,-0.1619350165128708,-0.8978488445281982,-0.030675262212753296,0.037820011377334595,0.07239413261413574,0,0,0
1705430143.117049,Papyrus Plants,36.99979048686642,-122.05849612404197,4.424227714537511,2.298287575628563,18.19276834328617,242.8393346713856,86.608154296875,22.819187296294224,200.69766235351562,25.232725739362238,11,2,-78,0.722346696558141,0.34161118626113496,0.5517418892229474,-0.8305798059457193,-1.5998849868774414,3.4979000091552734,-1.2879739999771118,0.49388277530670166,-0.33500561118125916,-0.8024032711982727,-0.14686733484268188,-0.14407461881637573,0.10605323314666748,0,0,0
1705430143.117049,Papyrus Plants,36.99979048686642,-122.05849612404197,4.424227714537511,2.298287575628563,18.19276834328617,242.8393346713856,86.608154296875,22.819187296294224,200.69766235351562,25.232725739362238,11,1,-79,0.8401565197382046,0.34161118626113496,0.5517418892229474,-0.8305798059457193,-1.5998849868774414,3.4979000091552734,-1.2879739999771118,0.49388277530670166,-0.33500561118125916,-0.8024032711982727,-0.14686733484268188,-0.14407461881637573,0.10605323314666748,0,0,0
1705430144.111428,Papyrus Plants,36.99979233470242,-122.05843464693801,4.424227714537512,2.3473750993867664,15.641061376276047,242.58218776993454,86.608154296875,26.40893673485848,190.2963409423828,21.478110710344424,11,2,-79,0.7447025829918696,0.07166819136930205,0.32232817614725456,-0.5386521538447842,0.15493234992027283,-0.09332399070262909,0.22810062766075134,0.3159625232219696,-0.07160685211420059,-0.9460656046867371,-0.006422668695449829,0.011487185955047607,-0.005365610122680664,0,0,0
1705430144.111428,Papyrus Plants,36.99979233470242,-122.05843464693801,4.424227714537512,2.3473750993867664,15.641061376276047,242.58218776993454,86.608154296875,26.40893673485848,190.2963409423828,21.478110710344424,11,1,-79,0.8147901079649559,0.07166819136930205,0.32232817614725456,-0.5386521538447842,0.15493234992027283,-0.09332399070262909,0.22810062766075134,0.3159625232219696,-0.07160685211420059,-0.9460656046867371,-0.006422668695449829,0.011487185955047607,-0.005365610122680664,0,0,0
1705430145.12198,Papyrus Plants,36.99977300132268,-122.05840024060922,3.8931992053978366,2.370360061204841,15.628770719378908,242.22306275833398,92.71435546875,30.026051036960226,188.4380340576172,21.139181334779643,11,1,-78,0.759964645367463,0.062321917563618344,0.12723780078871327,-0.5155746842193778,0.7522557973861694,-0.40784215927124023,0.33313611149787903,0.126648411154747,-0.06228158250451088,-0.9899904727935791,0.0019527077674865723,0.0005597472190856934,0.027740776538848877,0,0,0
1705430145.12198,Papyrus Plants,36.99977300132268,-122.05840024060922,3.8931992053978366,2.370360061204841,15.628770719378908,242.22306275833398,92.71435546875,30.026051036960226,188.4380340576172,21.139181334779643,11,2,-93,1.1305707325060672,0.062321917563618344,0.12723780078871327,-0.5155746842193778,0.7522557973861694,-0.40784215927124023,0.33313611149787903,0.126648411154747,-0.06228158250451088,-0.9899904727935791,0.0019527077674865723,0.0005597472190856934,0.027740776538848877,0,0,0
1705430146.123087,Papyrus Plants,36.99979763013533,-122.05845737307057,3.3406231403346256,2.279469628039931,15.440181626086655,241.91968263406307,358.7216796875,31.2320911563449,168.8854217529297,20.46772027279937,11,1,-80,0.8008060369058587,0.42473483205187523,0.3155863171677755,-0.24029761899704397,-0.15114088356494904,-0.13397124409675598,-0.08887144923210144,0.28279656171798706,-0.41207918524742126,-0.8661506175994873,-0.16270986199378967,-0.06220981478691101,-0.026137590408325195,0,0,0
1705430146.123087,Papyrus Plants,36.99979763013533,-122.05845737307057,3.3406231403346256,2.279469628039931,15.440181626086655,241.91968263406307,358.7216796875,31.2320911563449,168.8854217529297,20.46772027279937,11,2,-91,1.4999791829547946,0.42473483205187523,0.3155863171677755,-0.24029761899704397,-0.15114088356494904,-0.13397124409675598,-0.08887144923210144,0.28279656171798706,-0.41207918524742126,-0.8661506175994873,-0.16270986199378967,-0.06220981478691101,-0.026137590408325195,0,0,0
1705430147.115046,Papyrus Plants,36.9998006655926,-122.05844499020678,3.098455429076784,2.4904875659588375,15.363023451170442,241.67990411724895,88.70560677641056,33.05527549899667,172.88699340820312,20.258495881098415,11,2,0,-1,0.36462293009086205,0.13269370085141952,-0.27951958173742797,-0.41748327016830444,0.02154073305428028,-0.22229987382888794,0.12360670417547226,-0.35659703612327576,-0.926045298576355,0.010960586369037628,0.011534720659255981,0.06621259450912476,0,0,0
1705430147.115046,Papyrus Plants,36.9998006655926,-122.05844499020678,3.098455429076784,2.4904875659588375,15.363023451170442,241.67990411724895,88.70560677641056,33.05527549899667,172.88699340820312,20.258495881098415,11,1,-90,1.1088676779251339,0.36462293009086205,0.13269370085141952,-0.27951958173742797,-0.41748327016830444,0.02154073305428028,-0.22229987382888794,0.12360670417547226,-0.35659703612327576,-0.926045298576355,0.010960586369037628,0.011534720659255981,0.06621259450912476,0,0,0
1705430148.113492,Papyrus Plants,36.99980223189248,-122.05842964300211,2.438719987869084,2.2767523484714824,14.694099206753208,241.28220344055444,86.99200439768849,34.75151755039245,179.4288787841797,19.51243888155384,11,2,0,-1,0.32245671025988687,0.26431546006851253,-0.3918722503226942,-0.25850266218185425,0.22371560335159302,0.20546060800552368,0.24778375029563904,-0.31689760088920593,-0.9155212640762329,0.09262461960315704,0.026965320110321045,0.04119265079498291,0,0,0
1705430148.113492,Papyrus Plants,36.99980223189248,-122.05842964300211,2.438719987869084,2.2767523484714824,14.694099206753208,241.28220344055444,86.99200439768849,34.75151755039245,179.4288787841797,19.51243888155384,11,1,-76,0.8025907962904033,0.32245671025988687,0.26431546006851253,-0.3918722503226942,-0.25850266218185425,0.22371560335159302,0.20546060800552368,0.24778375029563904,-0.31689760088920593,-0.9155212640762329,0.09262461960315704,0.026965320110321045,0.04119265079498291,0,0,0
1705430149.127119,Papyrus Plants,36.9998103393315,-122.05840936880263,2.4387199878690846,2.5361432917123334,14.61435712436795,241.01940549351275,70.97782260354607,37.3649001286035,178.3250732421875,19.58121884452165,11,1,-76,0.675355823661989,0.4605751011928383,0.3012791489168353,-0.39468286510665535,-0.1940428614616394,0.3325929343700409,0.37500137090682983,0.26582059264183044,-0.4444633424282074,-0.855448305606842,0.07590001821517944,-0.07660910487174988,0.044520020484924316,0,0,0
1705430149.127119,Papyrus Plants,36.9998103393315,-122.05840936880263,2.4387199878690846,2.5361432917123334,14.61435712436795,241.01940549351275,70.97782260354607,37.3649001286035,178.3250732421875,19.58121884452165,11,2,-79,1.1518665415074105,0.4605751011928383,0.3012791489168353,-0.39468286510665535,-0.1940428614616394,0.3325929343700409,0.37500137090682983,0.26582059264183044,-0.4444633424282074,-0.855448305606842,0.07590001821517944,-0.07660910487174988,0.044520020484924316,0,0,0
1705430150.127458,Papyrus Plants,36.99982717752291,-122.05840295310007,1.946715116500763,2.8399824201244406,14.566057567012182,240.96641540993005,16.377913237944014,43.673032063405714,178.89883422851562,19.847752197654657,11,1,-76,0.6099011084566834,0.40199135520157153,0.32627274460994277,-0.40878342750003127,0.0793725997209549,0.0793425440788269,0.06401461362838745,0.29496440291404724,-0.39125174283981323,-0.8717328310012817,0.010501325130462646,0.030915379524230957,0.0033704042434692383,0,0,0
1705430150.127458,Papyrus Plants,36.99982717752291,-122.05840295310007,1.946715116500763,2.8399824201244406,14.566057567012182,240.96641540993005,16.377913237944014,43.673032063405714,178.89883422851562,19.847752197654657,11,2,-79,0.8816251706447327,0.40199135520157153,0.32627274460994277,-0.40878342750003127,0.0793725997209549,0.0793425440788269,0.06401461362838745,0.29496440291404724,-0.39125174283981323,-0.8717328310012817,0.010501325130462646,0.030915379524230957,0.0033704042434692383,0,0,0
1705430151.1173902,Papyrus Plants,36.9998101843798,-122.05841828127465,0,2.9238667746265663,14.453884307183635,240.96641511190683,358.7216796875,43.673032063405714,175.61692810058594,19.646378013868457,11,1,-77,0.605685346773303,0.4914657043357598,0.46548983240439584,-0.39891947535249034,-0.12723983824253082,-0.1692083328962326,0.1056099459528923,0.39573439955711365,-0.47191861271858215,-0.787837028503418,0.04091113805770874,0.017710179090499878,0.08289623260498047,0,0,0
1705430151.1173902,Papyrus Plants,36.9998101843798,-122.05841828127465,0,2.9238667746265663,14.453884307183635,240.96641511190683,358.7216796875,43.673032063405714,175.61692810058594,19.646378013868457,11,2,-86,1.1630515957846383,0.4914657043357598,0.46548983240439584,-0.39891947535249034,-0.12723983824253082,-0.1692083328962326,0.1056099459528923,0.39573439955711365,-0.47191861271858215,-0.787837028503418,0.04091113805770874,0.017710179090499878,0.08289623260498047,0,0,0
1705430152.125036,Papyrus Plants,36.99981529920227,-122.05841894295149,0.45486748218536377,2.8220624135860986,16.934619398952307,241.28053181059659,-1,-1,175.61692810058594,23.13031812067526,11,1,-78,0.6344689082488169,0.3667464480433854,0.3361588655902245,-0.3622923125287358,0.15264131128787994,0.034527651965618134,0.014132283627986908,0.30792713165283203,-0.3585801422595978,-0.8812497854232788,0.0032301247119903564,0.01981973648071289,0.003732144832611084,0,0,0
1705430152.125036,Papyrus Plants,36.99981529920227,-122.05841894295149,0.45486748218536377,2.8220624135860986,16.934619398952307,241.28053181059659,-1,-1,175.61692810058594,23.13031812067526,11,2,-95,1.669728248146964,0.3667464480433854,0.3361588655902245,-0.3622923125287358,0.15264131128787994,0.034527651965618134,0.014132283627986908,0.30792713165283203,-0.3585801422595978,-0.8812497854232788,0.0032301247119903564,0.01981973648071289,0.003732144832611084,0,0,0
1705430153.1224499,Papyrus Plants,36.99981512513624,-122.0584286685364,0,2.8182951626065478,16.764692362427027,241.28053181059659,358.7216796875,-1,175.31869506835938,22.606565711802023,11,1,-79,0.6846985302408584,0.34212658480890323,0.3244526194696078,-0.3414425484364057,-0.03584621846675873,-0.1905316412448883,-0.21347127854824066,0.3003140091896057,-0.3354911804199219,-0.892892599105835,-0.0009060204029083252,0.005977600812911987,0.003656148910522461,0,0,0
1705430153.1224499,Papyrus Plants,36.99981512513624,-122.0584286685364,0,2.8182951626065478,16.764692362427027,241.28053181059659,358.7216796875,-1,175.31869506835938,22.606565711802023,11,2,-82,1.4488608792170155,0.34212658480890323,0.3244526194696078,-0.3414425484364057,-0.03584621846675873,-0.1905316412448883,-0.21347127854824066,0.3003140091896057,-0.3354911804199219,-0.892892599105835,-0.0009060204029083252,0.005977600812911987,0.003656148910522461,0,0,0
1705430154.123277,Papyrus Plants,36.99981529920224,-122.05841894295285,0,3.0148264166624186,23.31132258401175,241.28053181059659,-1,-1,178.3796844482422,31.41729974156769,11,1,-77,0.6480196724047342,0.4093961959539154,0.2846932421593491,-0.40227974491221846,0.15766839683055878,-0.03168747201561928,0.03572588786482811,0.2576529085636139,-0.3980554938316345,-0.880435585975647,0.03035673499107361,-0.019470781087875366,0.018893897533416748,0,0,0
1705430154.123277,Papyrus Plants,36.99981529920224,-122.05841894295285,0,3.0148264166624186,23.31132258401175,241.28053181059659,-1,-1,178.3796844482422,31.41729974156769,11,2,-82,1.335693623067666,0.4093961959539154,0.2846932421593491,-0.40227974491221846,0.15766839683055878,-0.03168747201561928,0.03572588786482811,0.2576529085636139,-0.3980554938316345,-0.880435585975647,0.03035673499107361,-0.019470781087875366,0.018893897533416748,0,0,0
1705430155.1180658,Papyrus Plants,36.99981512513623,-122.05842866853662,0,2.8832452564639786,23.167854986449118,241.28053181059659,358.7216796875,-1,177.36106872558594,30.673372510173962,11,1,-76,0.5936826549419583,0.40574133098944803,0.27385058461867107,-0.3704161121132485,-0.028763333335518837,-0.017643911764025688,0.004747046157717705,0.24848347902297974,-0.3947000205516815,-0.8845721483230591,-0.007272496819496155,-0.013930410146713257,0.027257084846496582,0,0,0
1705430155.1180658,Papyrus Plants,36.99981512513623,-122.05842866853662,0,2.8832452564639786,23.167854986449118,241.28053181059659,358.7216796875,-1,177.36106872558594,30.673372510173962,11,2,-83,1.3219039824676635,0.40574133098944803,0.27385058461867107,-0.3704161121132485,-0.028763333335518837,-0.017643911764025688,0.004747046157717705,0.24848347902297974,-0.3947000205516815,-0.8845721483230591,-0.007272496819496155,-0.013930410146713257,0.027257084846496582,0,0,0
1705430156.121634,Papyrus Plants,36.99981495107022,-122.05843839412016,0,2.873479291886738,22.866708251955597,241.28053181059659,358.7216796875,-1,177.36106872558594,30.57919995560931,11,1,-78,0.6267268718901995,0.38436183074848407,0.28797648178748686,-0.37114218835437823,-0.18503034114837646,0.28448203206062317,0.006954158656299114,0.2632904648780823,-0.3749676048755646,-0.8888630270957947,-0.03210452198982239,0.0232219398021698,0.06082957983016968,0,0,0
1705430156.121634,Papyrus Plants,36.99981495107022,-122.05843839412016,0,2.873479291886738,22.866708251955597,241.28053181059659,358.7216796875,-1,177.36106872558594,30.57919995560931,11,2,-84,1.363134586480559,0.38436183074848407,0.28797648178748686,-0.37114218835437823,-0.18503034114837646,0.28448203206062317,0.006954158656299114,0.2632904648780823,-0.3749676048755646,-0.8888630270957947,-0.03210452198982239,0.0232219398021698,0.06082957983016968,0,0,0
1705430157.114846,Papyrus Plants,36.99981477700422,-122.0584481197037,0,2.767205816212326,22.56071395933656,241.28053181059659,358.7216796875,-1,177.36106872558594,29.920199642227736,11,1,-79,0.6795046662407696,0.4948553788414677,0.36752745855187047,-0.41617274217142125,0.07164903730154037,0.13563957810401917,0.028476789593696594,0.3162054717540741,-0.4749043881893158,-0.821267306804657,0.008364289999008179,0.0039418041706085205,0.015649080276489258,0,0,0
1705430157.114846,Papyrus Plants,36.99981477700422,-122.0584481197037,0,2.767205816212326,22.56071395933656,241.28053181059659,358.7216796875,-1,177.36106872558594,29.920199642227736,11,2,-80,1.1693634140486697,0.4948553788414677,0.36752745855187047,-0.41617274217142125,0.07164903730154037,0.13563957810401917,0.028476789593696594,0.3162054717540741,-0.4749043881893158,-0.821267306804657,0.008364289999008179,0.0039418041706085205,0.015649080276489258,0,0,0
1705430158.114234,Papyrus Plants,36.99981460293821,-122.05845784528724,0,2.729560774805784,22.526270948917766,241.28053181059659,358.7216796875,-1,200.29820251464844,29.616436809961012,11,1,-78,0.6802177538581347,0.36284971477293354,0.10636378735793516,-0.7576047399650734,0.2539626955986023,-2.455986976623535,-1.3729732036590576,0.09925096482038498,-0.35493984818458557,-0.9296057820320129,-0.005760312080383301,0.060078948736190796,-0.07385790348052979,0,0,0
