timestamp,username,latitude,longitude,speed,speedAcc,vertical_acc,                altitude,course,courseAcc,heading,horizontal_acc,major,minor,rssi,rssi_accuracy,                attitude_pitch,attitude_roll,attitude_yaw,rotation_rate_x,rotation_rate_y,                rotation_rate_z,gravity_accel_x,gravity_accel_y,gravity_accel_z,user_accel_x,                user_accel_y,user_accel_z,magnetic_field_x,magnetic_field_y,magnetic_field_z
1688762504.25015,Zebra,36.98139244365513,-122.05178024181768,0.49982309341430664,0.8866638018886582,13.919273894419087,120.66675448084185,172.84316921511459,40.075438711923915,61.933860778808594,17.94424718137381,6,1,-89,2.7825594022071245,0.48209165809416055,1.2810804460144405,2.892937439081984,0.016909871250391006,-0.45752888917922974,-0.05316590517759323,0.8491020202636719,-0.4636334478855133,-0.25312018394470215,-0.10538864135742188,0.1357526183128357,-0.008598566055297852,0,0,0
1688762504.25015,Zebra,36.98139244365513,-122.05178024181768,0.49982309341430664,0.8866638018886582,13.919273894419087,120.66675448084185,172.84316921511459,40.075438711923915,61.933860778808594,17.94424718137381,6,2,-89,2.7825594022071245,0.48209165809416055,1.2810804460144405,2.892937439081984,0.016909871250391006,-0.45752888917922974,-0.05316590517759323,0.8491020202636719,-0.4636334478855133,-0.25312018394470215,-0.10538864135742188,0.1357526183128357,-0.008598566055297852,0,0,0
1688762505.204506,Zebra,36.98138820134227,-122.05177957784659,0.4998230934143052,0.8866638018899148,13.919273894419078,120.66675452142954,172.84316961453013,40.07543871192454,36.525848388671875,17.944247181373818,6,1,-89,2.7825594006026413,0.5344121135379077,1.1963007423504672,-2.9384037771806897,-0.7030336260795593,0.2580533027648926,0.2880667448043823,0.8009240627288818,-0.5093352198600769,-0.314798504114151,-0.1657160520553589,0.2859008312225342,0.1948186457157135,0,0,0
1688762505.204506,Zebra,36.98138820134227,-122.05177957784659,0.4998230934143052,0.8866638018899148,13.919273894419078,120.66675452142954,172.84316961453013,40.07543871192454,36.525848388671875,17.944247181373818,6,2,-89,2.7825594006026413,0.5344121135379077,1.1963007423504672,-2.9384037771806897,-0.7030336260795593,0.2580533027648926,0.2880667448043823,0.8009240627288818,-0.5093352198600769,-0.314798504114151,-0.1657160520553589,0.2859008312225342,0.1948186457157135,0,0,0
1688762506.150101,Zebra,36.98139249982061,-122.05182596135508,0.4998230934143053,0.8552859147712543,12.87281194607747,120.60293102730066,130.88862591459835,42.76495536928659,6.073890686035156,14.985963802963095,6,1,0,-1,0.5029771162477601,1.1265186149983668,-2.3417051035258267,-0.5896600484848022,-0.17979829013347626,0.1892901510000229,0.7910957336425781,-0.4820360839366913,-0.37657496333122253,-0.0704994797706604,0.10842463374137878,0.0036501288414001465,0,0,0
1688762506.150101,Zebra,36.98139249982061,-122.05182596135508,0.4998230934143053,0.8552859147712543,12.87281194607747,120.60293102730066,130.88862591459835,42.76495536928659,6.073890686035156,14.985963802963095,6,2,0,-1,0.5029771162477601,1.1265186149983668,-2.3417051035258267,-0.5896600484848022,-0.17979829013347626,0.1892901510000229,0.7910957336425781,-0.4820360839366913,-0.37657496333122253,-0.0704994797706604,0.10842463374137878,0.0036501288414001465,0,0,0
1688762507.102087,Zebra,36.9813937990813,-122.0518300830933,0.4998230934143053,0.8775493793724359,8.263029805077801,120.53837367054075,126.23484286461037,47.08946749372328,323.917236328125,9.941677250562758,6,1,-80,1.3977024435198124,0.7004242323706098,0.17461586277430383,-1.3721126645197357,-0.339700311422348,-0.7789074182510376,0.1758280098438263,0.13282842934131622,-0.6445420980453491,-0.7529422640800476,0.06783987581729889,-0.0921521782875061,-0.06756860017776489,0,0,0
1688762507.102087,Zebra,36.9813937990813,-122.0518300830933,0.4998230934143053,0.8775493793724359,8.263029805077801,120.53837367054075,126.23484286461037,47.08946749372328,323.917236328125,9.941677250562758,6,2,-88,2.6188028691092926,0.7004242323706098,0.17461586277430383,-1.3721126645197357,-0.339700311422348,-0.7789074182510376,0.1758280098438263,0.13282842934131622,-0.6445420980453491,-0.7529422640800476,0.06783987581729889,-0.0921521782875061,-0.06756860017776489,0,0,0
1688762508.042326,Zebra,36.9814063583375,-122.05183685819472,0.2263522744178772,0.9012797838521227,6.721253090192347,120.4706993252039,-1,-1,273.2044677734375,8.106885639838486,6,1,-80,1.0851203676000816,0.7870809721110913,0.2974447899806494,-0.568449874974362,0.9320335388183594,0.13318167626857758,-0.5831022262573242,0.20688851177692413,-0.7082957029342651,-0.674917995929718,0.21603932976722717,0.04144090414047241,-0.05440640449523926,0,0,0
1688762508.042326,Zebra,36.9814063583375,-122.05183685819472,0.2263522744178772,0.9012797838521227,6.721253090192347,120.4706993252039,-1,-1,273.2044677734375,8.106885639838486,6,2,-88,2.544364549205405,0.7870809721110913,0.2974447899806494,-0.568449874974362,0.9320335388183594,0.13318167626857758,-0.5831022262573242,0.20688851177692413,-0.7082957029342651,-0.674917995929718,0.21603932976722717,0.04144090414047241,-0.05440640449523926,0,0,0
1688762508.998415,Zebra,36.98142050756046,-122.05187040414523,0.451727420091628,0.7212721888534206,12.233016258145442,120.41618795040995,330.2746509358618,57.24953043116112,243.61007690429688,14.497148419884713,6,2,0,-1,0.5516603078752492,0.8325081803979147,-0.15787209400722502,-0.24872566759586334,-0.35622358322143555,-0.4339829087257385,0.6299029588699341,-0.524101972579956,-0.573183536529541,0.18023192882537842,0.0029838085174560547,-0.3117194175720215,0,0,0
1688762508.998415,Zebra,36.98142050756046,-122.05187040414523,0.451727420091628,0.7212721888534206,12.233016258145442,120.41618795040995,330.2746509358618,57.24953043116112,243.61007690429688,14.497148419884713,6,1,-78,0.8797527457765536,0.5516603078752492,0.8325081803979147,-0.15787209400722502,-0.24872566759586334,-0.35622358322143555,-0.4339829087257385,0.6299029588699341,-0.524101972579956,-0.573183536529541,0.18023192882537842,0.0029838085174560547,-0.3117194175720215,0,0,0
1688762509.999607,Zebra,36.98142564478238,-122.05188292203749,0.293086767196655,0.6841993987158062,12.966352533593637,120.36688906792551,339.08911092611004,59.83790151159805,265.52520751953125,15.14143775489314,6,1,-76,0.7046816325699686,0.6707280074288805,0.9072020699908053,-0.649750858619279,0.5624448657035828,-1.4088557958602905,-0.47944176197052,0.617125391960144,-0.6215564608573914,-0.48251816630363464,-0.07464498281478882,-0.018717586994171143,-0.07482439279556274,0,0,0
1688762509.999607,Zebra,36.98142564478238,-122.05188292203749,0.293086767196655,0.6841993987158062,12.966352533593637,120.36688906792551,339.08911092611004,59.83790151159805,265.52520751953125,15.14143775489314,6,2,-83,1.929806187747874,0.6707280074288805,0.9072020699908053,-0.649750858619279,0.5624448657035828,-1.4088557958602905,-0.47944176197052,0.617125391960144,-0.6215564608573914,-0.48251816630363464,-0.07464498281478882,-0.018717586994171143,-0.07482439279556274,0,0,0
1688762510.998917,Zebra,36.981425083033365,-122.05188979571449,0.07513661682605743,0.8071055175954175,6.735150213594861,120.33493406046182,-1,-1,26.228872299194336,7.772508028018002,6,1,-78,0.6955377456673432,1.2460382467841007,-0.06838549435918193,-2.3550725891805095,-0.15400876104831696,-1.6815959215164185,-0.8185008764266968,-0.021803397685289383,-0.9477279186248779,-0.31833356618881226,-0.09459064900875092,-0.08816063404083252,0.11522385478019714,0,0,0
1688762510.998917,Zebra,36.981425083033365,-122.05188979571449,0.07513661682605743,0.8071055175954175,6.735150213594861,120.33493406046182,-1,-1,26.228872299194336,7.772508028018002,6,2,-79,1.1987777018523769,1.2460382467841007,-0.06838549435918193,-2.3550725891805095,-0.15400876104831696,-1.6815959215164185,-0.8185008764266968,-0.021803397685289383,-0.9477279186248779,-0.31833356618881226,-0.09459064900875092,-0.08816063404083252,0.11522385478019714,0,0,0
1688762511.995697,Zebra,36.98142711371908,-122.05190317586855,0.19224780797958374,0.8019918431472755,10.95860314537076,120.3016945766285,-1,-1,48.8350715637207,12.602837437236348,6,1,-80,0.7571141834889175,1.1039996467945792,0.5037362579939818,-3.1028982644441,-2.9065256118774414,0.571814239025116,1.400640606880188,0.21722887456417084,-0.8930144309997559,-0.39412763714790344,0.10857674479484558,-0.09592276811599731,-0.14748305082321167,0,0,0
1688762511.995697,Zebra,36.98142711371908,-122.05190317586855,0.19224780797958374,0.8019918431472755,10.95860314537076,120.3016945766285,-1,-1,48.8350715637207,12.602837437236348,6,2,-79,1.0026863773331436,1.1039996467945792,0.5037362579939818,-3.1028982644441,-2.9065256118774414,0.571814239025116,1.400640606880188,0.21722887456417084,-0.8930144309997559,-0.39412763714790344,0.10857674479484558,-0.09592276811599731,-0.14748305082321167,0,0,0
1688762513.00073,Zebra,36.98142703371289,-122.05191960241565,0.36179289221763555,0.7346077358156429,14.50208059544782,120.27751956228167,248.149737163431,85.80732184327685,37.12144088745117,16.549892374604045,6,1,-80,0.7998012765317518,0.43869258884674,0.05228436738555935,-2.5937499346456105,0.3979091942310333,0.09236610680818558,0.18725012242794037,0.04731187969446182,-0.4247562289237976,-0.9040706753730774,-0.023874394595623016,-0.09312704205513,0.029284298419952393,0,0,0
1688762513.00073,Zebra,36.98142703371289,-122.05191960241565,0.36179289221763555,0.7346077358156429,14.50208059544782,120.27751956228167,248.149737163431,85.80732184327685,37.12144088745117,16.549892374604045,6,2,-82,1.045374755852218,0.43869258884674,0.05228436738555935,-2.5937499346456105,0.3979091942310333,0.09236610680818558,0.18725012242794037,0.04731187969446182,-0.4247562289237976,-0.9040706753730774,-0.023874394595623016,-0.09312704205513,0.029284298419952393,0,0,0
1688762513.998416,Zebra,36.98143113149092,-122.05192600775996,0.2274416983127594,0.7545265342026192,11.434447826013448,120.25857143569738,-1,-1,0.19910430908203125,12.881611536098818,6,1,-79,0.7900069217381815,0.5225947361423777,-0.9938985513247574,-1.3444319692815352,0.3375176787376404,-4.169859409332275,3.7977452278137207,-0.7262870669364929,-0.4991302192211151,-0.472626656293869,0.19654780626296997,-0.173095703125,0.02543732523918152,0,0,0
1688762513.998416,Zebra,36.98143113149092,-122.05192600775996,0.2274416983127594,0.7545265342026192,11.434447826013448,120.25857143569738,-1,-1,0.19910430908203125,12.881611536098818,6,2,-79,0.9341657342170131,0.5225947361423777,-0.9938985513247574,-1.3444319692815352,0.3375176787376404,-4.169859409332275,3.7977452278137207,-0.7262870669364929,-0.4991302192211151,-0.472626656293869,0.19654780626296997,-0.173095703125,0.02543732523918152,0,0,0
1688762515.0001001,Zebra,36.98143764181418,-122.0519345234933,0.36179289221763555,0.7301457646386659,9.08201991321093,120.23481950256974,16.482978377893957,51.78544460460314,306.84259033203125,9.95063422981047,6,1,-79,0.7840467061133658,-0.112847447388299,-1.5872386996015775,-0.8444304576391882,-0.46808353066444397,0.3449508547782898,-0.12061942368745804,-0.9935052394866943,0.11260809004306793,0.01633705571293831,-0.08307862281799316,0.02565179020166397,0.13261926174163818,0,0,0
1688762515.0001001,Zebra,36.98143764181418,-122.0519345234933,0.36179289221763555,0.7301457646386659,9.08201991321093,120.23481950256974,16.482978377893957,51.78544460460314,306.84259033203125,9.95063422981047,6,2,-81,0.9558858961059542,-0.112847447388299,-1.5872386996015775,-0.8444304576391882,-0.46808353066444397,0.3449508547782898,-0.12061942368745804,-0.9935052394866943,0.11260809004306793,0.01633705571293831,-0.08307862281799316,0.02565179020166397,0.13261926174163818,0,0,0
1688762516.000074,Zebra,36.981445787773104,-122.05192934699092,0.5043241381645186,0.8160928778065017,10.4450252146013,120.2331691775471,44.002434071886015,25.561251885112913,307.85479736328125,11.299076837144867,6,1,-80,0.817352926566208,-0.10672330545189486,-1.38521078848174,-0.8177497613586058,0.12971210479736328,0.2294788360595703,-0.04990474879741669,-0.9772365093231201,0.10652082413434982,-0.18347220122814178,-0.08753699064254761,0.04487688094377518,-0.0007929801940917969,0,0,0
1688762516.000074,Zebra,36.981445787773104,-122.05192934699092,0.5043241381645186,0.8160928778065017,10.4450252146013,120.2331691775471,44.002434071886015,25.561251885112913,307.85479736328125,11.299076837144867,6,2,-83,1.0502635948029628,-0.10672330545189486,-1.38521078848174,-0.8177497613586058,0.12971210479736328,0.2294788360595703,-0.04990474879741669,-0.9772365093231201,0.10652082413434982,-0.18347220122814178,-0.08753699064254761,0.04487688094377518,-0.0007929801940917969,0,0,0
1688762516.997577,Zebra,36.9814609272462,-122.05190854715866,1.2951751947402685,0.7734379622636914,9.197863873062081,120.23732853215188,48.958811791473366,16.117705290463647,305.34393310546875,10.257887471515614,6,1,-81,0.876607073214327,-0.10298746169066385,-1.3477348518608572,-0.7771785161359199,0.024389587342739105,0.09699909389019012,0.0091570308431983,-0.9700575470924377,0.10280550271272659,-0.22004416584968567,-0.0019426345825195312,0.0419088751077652,0.036816567182540894,0,0,0
1688762516.997577,Zebra,36.9814609272462,-122.05190854715866,1.2951751947402685,0.7734379622636914,9.197863873062081,120.23732853215188,48.958811791473366,16.117705290463647,305.34393310546875,10.257887471515614,6,2,-83,1.1211861006203785,-0.10298746169066385,-1.3477348518608572,-0.7771785161359199,0.024389587342739105,0.09699909389019012,0.0091570308431983,-0.9700575470924377,0.10280550271272659,-0.22004416584968567,-0.0019426345825195312,0.0419088751077652,0.036816567182540894,0,0,0
1688762517.999073,Zebra,36.98149039293912,-122.0518832981979,2.7020514011380627,0.8239022054436437,10.318290521794328,120.23713054973632,47.13570121138742,12.411207051375596,276.8025817871094,11.510393705956758,6,1,-81,0.9176979689280742,-0.6320600455434892,-1.1075350530175987,-0.608167738813271,0.008998068049550056,-0.2748490869998932,-0.28567904233932495,-0.7217740416526794,0.590808093547821,-0.3605385422706604,-0.013104498386383057,0.011273205280303955,-0.0095633864402771,0,0,0
1688762517.999073,Zebra,36.98149039293912,-122.0518832981979,2.7020514011380627,0.8239022054436437,10.318290521794328,120.23713054973632,47.13570121138742,12.411207051375596,276.8025817871094,11.510393705956758,6,2,-81,1.0779591355813238,-0.6320600455434892,-1.1075350530175987,-0.608167738813271,0.008998068049550056,-0.2748490869998932,-0.28567904233932495,-0.7217740416526794,0.590808093547821,-0.3605385422706604,-0.013104498386383057,0.011273205280303955,-0.0095633864402771,0,0,0
1688762518.996224,Zebra,36.98152071870358,-122.05185102235247,3.536490917205266,0.8533577329755176,10.561290349721972,120.25511137023568,48.29377675038,10.000000000000142,285.7287292480469,11.921753164675907,6,1,-79,0.8608610056871816,-0.5698278979041352,-0.9368860857529288,-0.6684299290535289,-0.024497803300619125,0.11646822094917297,-0.013646524399518967,-0.678409218788147,0.5394871234893799,-0.4987127482891083,-0.03548836708068848,0.022463440895080566,-0.045873433351516724,0,0,0
1688762518.996224,Zebra,36.98152071870358,-122.05185102235247,3.536490917205266,0.8533577329755176,10.561290349721972,120.25511137023568,48.29377675038,10.000000000000142,285.7287292480469,11.921753164675907,6,2,-83,1.1402608329707045,-0.5698278979041352,-0.9368860857529288,-0.6684299290535289,-0.024497803300619125,0.11646822094917297,-0.013646524399518967,-0.678409218788147,0.5394871234893799,-0.4987127482891083,-0.03548836708068848,0.022463440895080566,-0.045873433351516724,0,0,0
1688762520.0037289,Zebra,36.98154939988634,-122.05181632203704,3.5364909172052656,1.262821905641427,9.710385821696315,120.27716811746359,46.156375119380904,9.753948400484015,290.2157287597656,10.893431573095624,6,1,-81,0.906070920932466,-0.5715899481958537,-0.7552533440085294,-0.684211502999957,0.11377096176147461,0.2016725242137909,-0.13799604773521423,-0.5765116214752197,0.540969967842102,-0.6123608350753784,0.08754372596740723,0.05097949504852295,-0.04555237293243408,0,0,0
1688762520.0037289,Zebra,36.98154939988634,-122.05181632203704,3.5364909172052656,1.262821905641427,9.710385821696315,120.27716811746359,46.156375119380904,9.753948400484015,290.2157287597656,10.893431573095624,6,2,-94,1.5314625293470263,-0.5715899481958537,-0.7552533440085294,-0.684211502999957,0.11377096176147461,0.2016725242137909,-0.13799604773521423,-0.5765116214752197,0.540969967842102,-0.6123608350753784,0.08754372596740723,0.05097949504852295,-0.04555237293243408,0,0,0
1688762520.999954,Zebra,36.981598771408834,-122.05176024863687,5.276806831358053,1.3304803295214442,7.924155957879817,120.33234915975481,43.90781167686894,8.528379560717951,5.801979064941406,8.169176270008945,6,1,-83,1.0137250569503058,0.8224581806771225,-0.1641556181366463,-1.6836693336840869,0.15228012204170227,-1.756725549697876,-0.24600613117218018,-0.11119411140680313,-0.7328206300735474,-0.6712747812271118,0.21452662348747253,0.06067103147506714,0.2579141855239868,0,0,0
1688762520.999954,Zebra,36.981598771408834,-122.05176024863687,5.276806831358053,1.3304803295214442,7.924155957879817,120.33234915975481,43.90781167686894,8.528379560717951,5.801979064941406,8.169176270008945,6,2,-88,1.7295409514260165,0.8224581806771225,-0.1641556181366463,-1.6836693336840869,0.15228012204170227,-1.756725549697876,-0.24600613117218018,-0.11119411140680313,-0.7328206300735474,-0.6712747812271118,0.21452662348747253,0.06067103147506714,0.2579141855239868,0,0,0
1688762522.0071921,Zebra,36.981639661463845,-122.05169775988149,6.2734465599029665,1.40578487929952,7.933792437835616,120.34692657459527,47.56454350750323,8.882933880165119,50.81456756591797,8.130156971422027,6,1,-81,1.0089353918747932,0.6757835190506183,-0.030282538604785022,-2.492444554178864,-0.49881163239479065,0.10560394823551178,-0.6973273754119873,-0.02362334355711937,-0.6255088448524475,-0.7798593640327454,0.08287321031093597,-0.02572101354598999,0.06298619508743286,0,0,0
1688762522.0071921,Zebra,36.981639661463845,-122.05169775988149,6.2734465599029665,1.40578487929952,7.933792437835616,120.34692657459527,47.56454350750323,8.882933880165119,50.81456756591797,8.130156971422027,6,2,-81,1.4280766519264105,0.6757835190506183,-0.030282538604785022,-2.492444554178864,-0.49881163239479065,0.10560394823551178,-0.6973273754119873,-0.02362334355711937,-0.6255088448524475,-0.7798593640327454,0.08287321031093597,-0.02572101354598999,0.06298619508743286,0,0,0
1688762522.990253,Zebra,36.981683558678284,-122.0516346477296,6.827378749843496,1.5078391202696138,6.940738419272777,120.42554690223187,49.12294936881114,9.12873441926609,32.246917724609375,6.967586949994813,6,1,-80,0.9607667550472938,0.8967774105499339,0.3443402704994626,-2.2924829362433004,-0.23403774201869965,-0.3829454779624939,0.862880527973175,0.21069148182868958,-0.7813196778297424,-0.5874934792518616,0.05533021688461304,0.10633188486099243,-0.04328960180282593,0,0,0
1688762522.990253,Zebra,36.981683558678284,-122.0516346477296,6.827378749843496,1.5078391202696138,6.940738419272777,120.42554690223187,49.12294936881114,9.12873441926609,32.246917724609375,6.967586949994813,6,2,-78,1.0819616626427055,0.8967774105499339,0.3443402704994626,-2.2924829362433004,-0.23403774201869965,-0.3829454779624939,0.862880527973175,0.21069148182868958,-0.7813196778297424,-0.5874934792518616,0.05533021688461304,0.10633188486099243,-0.04328960180282593,0,0,0
1688762523.997525,Zebra,36.98172878987063,-122.05158642195865,6.827378749843495,1.4228957101401707,6.822957282671484,120.64173794537783,46.950641431427776,9.316551365056144,323.4588623046875,6.82102043130165,6,1,-79,0.8873680111108595,-0.21126429007241396,-1.3924041949480845,-0.9923122594491316,-0.17810644209384918,0.5227659344673157,0.050811849534511566,-0.9622496962547302,0.20969624817371368,-0.17350219190120697,-0.058502197265625,0.05125954747200012,-0.035009145736694336,0,0,0
1688762523.997525,Zebra,36.98172878987063,-122.05158642195865,6.827378749843495,1.4228957101401707,6.822957282671484,120.64173794537783,46.950641431427776,9.316551365056144,323.4588623046875,6.82102043130165,6,2,-79,0.9627515779424617,-0.21126429007241396,-1.3924041949480845,-0.9923122594491316,-0.17810644209384918,0.5227659344673157,0.050811849534511566,-0.9622496962547302,0.20969624817371368,-0.17350219190120697,-0.058502197265625,0.05125954747200012,-0.035009145736694336,0,0,0
1688762525.118977,Zebra,36.98178998146416,-122.05155780077038,6.503375972714026,2.082851500276706,1.6148806533990459,121.50543832592666,45.29319813048404,17.32325680736095,322.2892150878906,5.665760766449057,6,1,-81,0.9239411331185163,-0.32390639371289714,-1.2107240453797523,-1.0025870912061143,0.022082097828388214,0.1339004933834076,-0.1541689783334732,-0.8872054219245911,0.3182722330093384,-0.33401986956596375,-0.06121981143951416,0.08683332800865173,0.004780977964401245,0,0,0
1688762525.118977,Zebra,36.98178998146416,-122.05155780077038,6.503375972714026,2.082851500276706,1.6148806533990459,121.50543832592666,45.29319813048404,17.32325680736095,322.2892150878906,5.665760766449057,6,2,-80,0.9336699146779979,-0.32390639371289714,-1.2107240453797523,-1.0025870912061143,0.022082097828388214,0.1339004933834076,-0.1541689783334732,-0.8872054219245911,0.3182722330093384,-0.33401986956596375,-0.06121981143951416,0.08683332800865173,0.004780977964401245,0,0,0
1688762525.997992,Zebra,36.9818204384722,-122.05148935517832,6.697460119580625,2.1804979305953487,1.569124208475964,121.64812657982111,54.084070801166234,17.006711652907782,49.554073333740234,5.725812669318219,6,1,-78,0.8214434151325809,0.6327054732520966,1.0974629045493132,-2.7151129526507694,-0.6491258144378662,-0.8046082854270935,-0.3624381422996521,0.7177665829658508,-0.5913286805152893,-0.36761605739593506,0.06522291898727417,0.2026873230934143,-0.01585260033607483,0,0,0
1688762525.997992,Zebra,36.9818204384722,-122.05148935517832,6.697460119580625,2.1804979305953487,1.569124208475964,121.64812657982111,54.084070801166234,17.006711652907782,49.554073333740234,5.725812669318219,6,2,-82,0.9941072540166795,0.6327054732520966,1.0974629045493132,-2.7151129526507694,-0.6491258144378662,-0.8046082854270935,-0.3624381422996521,0.7177665829658508,-0.5913286805152893,-0.36761605739593506,0.06522291898727417,0.2026873230934143,-0.01585260033607483,0,0,0
1688762526.996469,Zebra,36.981861103469065,-122.05141933292914,7.0449408165954415,2.1223127880881734,1.655414556520839,121.72058101091534,53.90117663621332,15.240369559186352,68.07902526855469,5.6695462046153065,6,1,-79,0.8037905869497014,0.5280363871576372,0.31395058820315097,-2.6555573482054564,0.3363858759403229,0.04113272577524185,-0.19917160272598267,0.2667568325996399,-0.5038381218910217,-0.8215764164924622,-0.023760676383972168,0.129738450050354,-0.024981141090393066,0,0,0
1688762526.996469,Zebra,36.981861103469065,-122.05141933292914,7.0449408165954415,2.1223127880881734,1.655414556520839,121.72058101091534,53.90117663621332,15.240369559186352,68.07902526855469,5.6695462046153065,6,2,-78,0.8596192693196699,0.5280363871576372,0.31395058820315097,-2.6555573482054564,0.3363858759403229,0.04113272577524185,-0.19917160272598267,0.2667568325996399,-0.5038381218910217,-0.8215764164924622,-0.023760676383972168,0.129738450050354,-0.024981141090393066,0,0,0
1688762528.003694,Zebra,36.98190501781819,-122.05134337643086,7.74227895802345,2.0926865072882146,1.7232539761914956,122.24759710300714,54.90900317796601,13.76887227271566,71.44709777832031,5.625100517207289,6,2,-78,0.7868721413878434,0.554438882158771,0.09484739225374827,-2.6170231918961684,0.010692838579416275,-0.28004756569862366,0.1446029543876648,0.08051802217960358,-0.5264663100242615,-0.8463746309280396,0.06442520767450333,0.15106958150863647,-0.15498340129852295,0,0,0
1688762528.003694,Zebra,36.98190501781819,-122.05134337643086,7.74227895802345,2.0926865072882146,1.7232539761914956,122.24759710300714,54.90900317796601,13.76887227271566,71.44709777832031,5.625100517207289,6,1,-80,0.8301579176557763,0.554438882158771,0.09484739225374827,-2.6170231918961684,0.010692838579416275,-0.28004756569862366,0.1446029543876648,0.08051802217960358,-0.5264663100242615,-0.8463746309280396,0.06442520767450333,0.15106958150863647,-0.15498340129852295,0,0,0
1688762528.991991,Zebra,36.98195282051855,-122.0512756659355,7.720461616130068,1.9187468704753534,1.9287387446318012,122.15317083988339,53.78501178373591,13.21751472596494,82.39747619628906,5.486757137667475,6,1,-78,0.768737044305431,0.7702221528229846,0.37006052550908136,-2.922714404549662,0.08618925511837006,0.007338373456150293,0.005153225269168615,0.25959211587905884,-0.6962947249412537,-0.6691677570343018,0.04582774639129639,-0.0024509429931640625,-0.05963772535324097,0,0,0
1688762528.991991,Zebra,36.98195282051855,-122.0512756659355,7.720461616130068,1.9187468704753534,1.9287387446318012,122.15317083988339,53.78501178373591,13.21751472596494,82.39747619628906,5.486757137667475,6,2,-82,0.8863038583054758,0.7702221528229846,0.37006052550908136,-2.922714404549662,0.08618925511837006,0.007338373456150293,0.005153225269168615,0.25959211587905884,-0.6962947249412537,-0.6691677570343018,0.04582774639129639,-0.0024509429931640625,-0.05963772535324097,0,0,0
1688762529.9947472,Zebra,36.98199060982943,-122.05121738387218,6.873534091967796,1.8316656881430557,2.2659056984327854,121.65541782416403,54.40018933736852,14.06758780937717,185.8125,5.356324149881023,6,1,-81,0.8412622755436452,-0.0326754451216179,2.7414590678371034,1.68651181727418,-0.0662989392876625,0.12553781270980835,-0.03519928827881813,0.38933348655700684,0.03266962990164757,0.9205174446105957,0.05388861894607544,0.0010828189551830292,0.06764185428619385,0,0,0
1688762529.9947472,Zebra,36.98199060982943,-122.05121738387218,6.873534091967796,1.8316656881430557,2.2659056984327854,121.65541782416403,54.40018933736852,14.06758780937717,185.8125,5.356324149881023,6,2,-86,1.0966520693386885,-0.0326754451216179,2.7414590678371034,1.68651181727418,-0.0662989392876625,0.12553781270980835,-0.03519928827881813,0.38933348655700684,0.03266962990164757,0.9205174446105957,0.05388861894607544,0.0010828189551830292,0.06764185428619385,0,0,0
1688762530.988758,Zebra,36.98201309904722,-122.05117399417126,5.506339031383762,1.8628468053397131,2.4243763047308726,121.62122074700892,55.8635979980974,17.74053278822547,181.5711669921875,5.286486221096989,6,1,-84,0.997629075534341,-0.051243154873476145,2.790968839167041,1.777370800917323,0.024154996499419212,-0.042382337152957916,-0.10526780784130096,0.3430327773094177,0.05122072994709015,0.9379255771636963,0.007202118635177612,0.009066734462976456,-0.049116671085357666,0,0,0
1688762530.988758,Zebra,36.98201309904722,-122.05117399417126,5.506339031383762,1.8628468053397131,2.4243763047308726,121.62122074700892,55.8635979980974,17.74053278822547,181.5711669921875,5.286486221096989,6,2,-85,1.2421100133144307,-0.051243154873476145,2.790968839167041,1.777370800917323,0.024154996499419212,-0.042382337152957916,-0.10526780784130096,0.3430327773094177,0.05122072994709015,0.9379255771636963,0.007202118635177612,0.009066734462976456,-0.049116671085357666,0,0,0
1688762532.00091,Zebra,36.98203908501936,-122.0511398841419,4.759470408804674,1.9328615948390604,2.5082656840514495,121.59378894791007,52.887977511512716,21.11677739192443,175.80429077148438,5.247203092219583,6,1,-88,1.2604632323896228,-0.07626283135423868,2.864636793994094,1.8827625301752071,-0.4610064625740051,-0.6946280598640442,-0.25356239080429077,0.27263402938842773,0.07618892937898636,0.959096372127533,0.04683920741081238,0.004621610045433044,0.049967288970947266,0,0,0
1688762532.00091,Zebra,36.98203908501936,-122.0511398841419,4.759470408804674,1.9328615948390604,2.5082656840514495,121.59378894791007,52.887977511512716,21.11677739192443,175.80429077148438,5.247203092219583,6,2,-86,1.3992453779187708,-0.07626283135423868,2.864636793994094,1.8827625301752071,-0.4610064625740051,-0.6946280598640442,-0.25356239080429077,0.27263402938842773,0.07618892937898636,0.959096372127533,0.04683920741081238,0.004621610045433044,0.049967288970947266,0,0,0
1688762533.0059319,Zebra,36.982061168659676,-122.05109849059568,4.13337381883024,1.5313886648004162,2.561213706440269,121.19168525189161,53.45842183252758,18.365276785934856,162.79791259765625,5.221563116800499,6,1,-86,1.416601546436637,-0.06313377629542985,2.8038136256992003,2.0926252213931438,-0.07761088013648987,0.0160211231559515,-0.2921766936779022,0.330732136964798,0.06309184432029724,0.9416130781173706,0.08893027901649475,0.026858702301979065,-0.016595005989074707,0,0,0
1688762533.0059319,Zebra,36.982061168659676,-122.05109849059568,4.13337381883024,1.5313886648004162,2.561213706440269,121.19168525189161,53.45842183252758,18.365276785934856,162.79791259765625,5.221563116800499,6,2,-87,1.5701027145863282,-0.06313377629542985,2.8038136256992003,2.0926252213931438,-0.07761088013648987,0.0160211231559515,-0.2921766936779022,0.330732136964798,0.06309184432029724,0.9416130781173706,0.08893027901649475,0.026858702301979065,-0.016595005989074707,0,0,0
1688762533.9923291,Zebra,36.98208349518588,-122.05107295988499,3.725566652188193,1.65240265096755,2.309511250387988,121.81724010407925,49.79002297779352,22.861512046809786,146.88558959960938,5.337667544641587,6,1,-90,1.7112974401306729,-0.10903342422997152,2.8336008458734274,2.369226100433047,0.10575977712869644,0.3362720012664795,-0.2719980776309967,0.3013454079627991,0.10881751775741577,0.947285532951355,-0.031173259019851685,0.08747155219316483,-0.03093409538269043,0,0,0
1688762533.9923291,Zebra,36.98208349518588,-122.05107295988499,3.725566652188193,1.65240265096755,2.309511250387988,121.81724010407925,49.79002297779352,22.861512046809786,146.88558959960938,5.337667544641587,6,2,-95,2.011177597952467,-0.10903342422997152,2.8336008458734274,2.369226100433047,0.10575977712869644,0.3362720012664795,-0.2719980776309967,0.3013454079627991,0.10881751775741577,0.947285532951355,-0.031173259019851685,0.08747155219316483,-0.03093409538269043,0,0,0
1688762535.0010672,Zebra,36.98211081169797,-122.0510542258199,3.6262698374249505,1.792834355048141,1.8829269519126344,121.69405825808644,40.48747743632266,26.08893707591237,130.66702270507812,5.502646920033107,6,1,-89,1.9285613705605933,-0.09300672756401342,2.8229871047397856,2.6598855417779323,-0.12012716382741928,0.03701377287507057,-0.23252980411052704,0.311888724565506,0.09287269413471222,0.9455685615539551,-0.005278646945953369,0.1300887167453766,-0.012219071388244629,0,0,0
1688762535.0010672,Zebra,36.98211081169797,-122.0510542258199,3.6262698374249505,1.792834355048141,1.8829269519126344,121.69405825808644,40.48747743632266,26.08893707591237,130.66702270507812,5.502646920033107,6,2,-93,2.386141315009323,-0.09300672756401342,2.8229871047397856,2.6598855417779323,-0.12012716382741928,0.03701377287507057,-0.23252980411052704,0.311888724565506,0.09287269413471222,0.9455685615539551,-0.005278646945953369,0.1300887167453766,-0.012219071388244629,0,0,0
1688762535.9899812,Zebra,36.982141417493004,-122.0510463742616,3.5656949121678214,1.8771940097401059,1.7047717875621482,121.9065077137202,28.830022407500056,27.255443061524478,116.1658706665039,5.704577471453468,6,1,-89,2.1077563061419236,-0.10403561367838267,2.849166123408843,2.9152875484068126,0.032377246767282486,-0.17007510364055634,-0.03581150248646736,0.28671795129776,0.10384804755449295,0.9523699283599854,-0.05855324864387512,0.04529134929180145,-0.14109063148498535,0,0,0
1688762535.9899812,Zebra,36.982141417493004,-122.0510463742616,3.5656949121678214,1.8771940097401059,1.7047717875621482,121.9065077137202,28.830022407500056,27.255443061524478,116.1658706665039,5.704577471453468,6,2,-92,2.6747330101124653,-0.10403561367838267,2.849166123408843,2.9152875484068126,0.032377246767282486,-0.17007510364055634,-0.03581150248646736,0.28671795129776,0.10384804755449295,0.9523699283599854,-0.05855324864387512,0.04529134929180145,-0.14109063148498535,0,0,0
1688762537.0001612,Zebra,36.98218292265308,-122.05107025976827,3.6684233014922727,1.8277758319510529,1.652819636420277,122.29493809863925,6.918850593125225,24.34399369804261,109.41143798828125,5.726628822757967,6,2,0,-1,-0.10976900020304382,2.883134003353952,3.0369072072174856,0.16715219616889954,0.26270952820777893,-0.14453232288360596,0.25405243039131165,0.10954869538545609,0.9609665274620056,-0.046639710664749146,0.035165660083293915,-0.0012191534042358398,0,0,0
1688762537.0001612,Zebra,36.98218292265308,-122.05107025976827,3.6684233014922727,1.8277758319510529,1.652819636420277,122.29493809863925,6.918850593125225,24.34399369804261,109.41143798828125,5.726628822757967,6,1,-92,2.4177028472572886,-0.10976900020304382,2.883134003353952,3.0369072072174856,0.16715219616889954,0.26270952820777893,-0.14453232288360596,0.25405243039131165,0.10954869538545609,0.9609665274620056,-0.046639710664749146,0.035165660083293915,-0.0012191534042358398,0,0,0
1688762537.99946,Zebra,36.9822247429109,-122.05109804740526,3.9705276274772148,1.8000466665944288,1.5667715552576236,122.1781600639224,349.7638072770086,21.404187939154912,105.32560729980469,5.781420150867726,6,2,0,-1,-0.11519478715945065,2.9254489017112437,3.0985031114452046,-0.03493707627058029,0.047375377267599106,-0.041488103568553925,0.21304334700107574,0.11494018882513046,0.9702584743499756,-0.04412852227687836,-0.012111194431781769,-0.0017067193984985352,0,0,0
1688762537.99946,Zebra,36.9822247429109,-122.05109804740526,3.9705276274772148,1.8000466665944288,1.5667715552576236,122.1781600639224,349.7638072770086,21.404187939154912,105.32560729980469,5.781420150867726,6,1,-91,2.63527902358066,-0.11519478715945065,2.9254489017112437,3.0985031114452046,-0.03493707627058029,0.047375377267599106,-0.041488103568553925,0.21304334700107574,0.11494018882513046,0.9702584743499756,-0.04412852227687836,-0.012111194431781769,-0.0017067193984985352,0,0,0
1688762538.9959478,Zebra,36.98226371669265,-122.05113186819725,4.34791098593502,1.6820142731681234,1.604174382868276,122.02555331774056,337.6430918269625,18.298371339851826,104.3177490234375,5.656687105867419,6,2,-89,2.7004125787404334,-0.10441883741054118,2.9164064532510805,3.116116472865351,0.00022756634280085564,0.0011887468863278627,-0.035827916115522385,0.22207169234752655,0.10422918945550919,0.9694433808326721,0.0073136985301971436,-0.026607736945152283,0.043267130851745605,0,0,0
1688762538.9959478,Zebra,36.98226371669265,-122.05113186819725,4.34791098593502,1.6820142731681234,1.604174382868276,122.02555331774056,337.6430918269625,18.298371339851826,104.3177490234375,5.656687105867419,6,1,-90,2.745882711491465,-0.10441883741054118,2.9164064532510805,3.116116472865351,0.00022756634280085564,0.0011887468863278627,-0.035827916115522385,0.22207169234752655,0.10422918945550919,0.9694433808326721,0.0073136985301971436,-0.026607736945152283,0.043267130851745605,0,0,0
1688762540.003811,Zebra,36.982310784599846,-122.05117084908488,4.964105974263412,1.7092652276439535,1.5843576891339768,122.59405412524939,331.00540858309193,16.381442716985294,104.3177490234375,5.697772352696859,6,2,-88,2.5801248524089586,-0.09993938185929939,2.932813444089141,3.1296483494860463,0.01978040486574173,-0.0024151073303073645,0.0070553007535636425,0.20623154938220978,0.0997731015086174,0.9734032154083252,-0.0006804317235946655,-0.02875872701406479,0.04431217908859253,0,0,0
1688762540.003811,Zebra,36.982310784599846,-122.05117084908488,4.964105974263412,1.7092652276439535,1.5843576891339768,122.59405412524939,331.00540858309193,16.381442716985294,104.3177490234375,5.697772352696859,6,1,-88,2.6700462002135446,-0.09993938185929939,2.932813444089141,3.1296483494860463,0.01978040486574173,-0.0024151073303073645,0.0070553007535636425,0.20623154938220978,0.0997731015086174,0.9734032154083252,-0.0006804317235946655,-0.02875872701406479,0.04431217908859253,0,0,0
1688762541.0041552,Zebra,36.98236985826818,-122.05121247897912,5.846826775567782,1.6157673220985864,1.6543722853829874,122.7522653453052,328.2312177478176,13.442159790197605,103.28352355957031,5.6019767246690595,6,2,-88,2.5334710599086283,-0.0655168879059347,2.812292574558958,-3.141040519612754,0.08578993380069733,0.21346056461334229,0.05020024627447128,0.322687029838562,0.06547002494335175,0.9442387819290161,-0.015817493200302124,0.04613274335861206,-0.05529224872589111,0,0,0
1688762541.0041552,Zebra,36.98236985826818,-122.05121247897912,5.846826775567782,1.6157673220985864,1.6543722853829874,122.7522653453052,328.2312177478176,13.442159790197605,103.28352355957031,5.6019767246690595,6,1,-93,2.9595072499635604,-0.0655168879059347,2.812292574558958,-3.141040519612754,0.08578993380069733,0.21346056461334229,0.05020024627447128,0.322687029838562,0.06547002494335175,0.9442387819290161,-0.015817493200302124,0.04613274335861206,-0.05529224872589111,0,0,0
1688762542.00401,Zebra,36.98243536917497,-122.05125353606192,6.694812988891346,1.6110749538163704,1.7218137264543223,122.97166264615953,328.57821239907565,11.63094587008242,106.61239624023438,5.555168271455178,6,2,-89,2.601349585113506,-0.13742350947678214,3.0204489831741066,3.0611523380113197,0.07107582688331604,0.1526777595281601,0.03027375414967537,0.11970824748277664,0.13699136674404144,0.9833123683929443,0.02019958198070526,-0.01702679693698883,0.05651295185089111,0,0,0
1688762542.00401,Zebra,36.98243536917497,-122.05125353606192,6.694812988891346,1.6110749538163704,1.7218137264543223,122.97166264615953,328.57821239907565,11.63094587008242,106.61239624023438,5.555168271455178,6,1,-94,3.2829096555348176,-0.13742350947678214,3.0204489831741066,3.0611523380113197,0.07107582688331604,0.1526777595281601,0.03027375414967537,0.11970824748277664,0.13699136674404144,0.9833123683929443,0.02019958198070526,-0.01702679693698883,0.05651295185089111,0,0,0
1688762542.9903011,Zebra,36.98249794033353,-122.05129561870122,7.214454655279898,1.6593620737451003,1.6599032141616406,123.36162661854178,329.05888718834643,11.123261562646546,108.93950653076172,5.578532359752504,6,1,0,-1,-0.12817640102616265,3.0364123975000834,3.0250863169771036,-0.01016218215227127,-0.11271610110998154,0.041521113365888596,0.10412516444921494,0.12782572209835052,0.9863154292106628,0.07852252572774887,0.11080645024776459,-0.022326409816741943,0,0,0
1688762542.9903011,Zebra,36.98249794033353,-122.05129561870122,7.214454655279898,1.6593620737451003,1.6599032141616406,123.36162661854178,329.05888718834643,11.123261562646546,108.93950653076172,5.578532359752504,6,2,0,-1,-0.12817640102616265,3.0364123975000834,3.0250863169771036,-0.01016218215227127,-0.11271610110998154,0.041521113365888596,0.10412516444921494,0.12782572209835052,0.9863154292106628,0.07852252572774887,0.11080645024776459,-0.022326409816741943,0,0,0
1688762544.00031,Zebra,36.9825707284552,-122.05134348059669,8.012873286691288,1.6354252426318638,1.6773850796652006,123.50444652605802,329.92264383039543,9.916779670927584,111.04889678955078,5.568744591674627,6,1,0,-1,-0.1179421410413546,3.053283210378708,2.9998796305143007,-0.03026312217116356,0.01648152619600296,0.0850326269865036,0.08758197724819183,0.11766889691352844,0.9891828894615173,0.026630021631717682,0.00960461050271988,-0.017000019550323486,0,0,0
1688762544.00031,Zebra,36.9825707284552,-122.05134348059669,8.012873286691288,1.6354252426318638,1.6773850796652006,123.50444652605802,329.92264383039543,9.916779670927584,111.04889678955078,5.568744591674627,6,2,-96,3.1095094436982706,-0.1179421410413546,3.053283210378708,2.9998796305143007,-0.03026312217116356,0.01648152619600296,0.0850326269865036,0.08758197724819183,0.11766889691352844,0.9891828894615173,0.026630021631717682,0.00960461050271988,-0.017000019550323486,0,0,0
1688762545.0068731,Zebra,36.982642240437144,-122.05139521829611,8.559911195475868,1.6615935715114873,1.598986738532744,124.10909798927605,330.5755019326925,9.453266827046736,340.3789367675781,5.591759869914413,6,1,0,-1,0.9682443471062504,2.6196198760721714,3.0854651266037156,-6.7740960121154785,-0.9455903768539429,0.40340501070022583,0.2825748324394226,-0.8238919973373413,0.4912770092487335,0.06663775444030762,0.35825490951538086,0.688608705997467,0,0,0
1688762545.0068731,Zebra,36.982642240437144,-122.05139521829611,8.559911195475868,1.6615935715114873,1.598986738532744,124.10909798927605,330.5755019326925,9.453266827046736,340.3789367675781,5.591759869914413,6,2,-95,3.6932354642421066,0.9682443471062504,2.6196198760721714,3.0854651266037156,-6.7740960121154785,-0.9455903768539429,0.40340501070022583,0.2825748324394226,-0.8238919973373413,0.4912770092487335,0.06663775444030762,0.35825490951538086,0.688608705997467,0,0,0
1688762546.0058541,Zebra,36.982722680561025,-122.05144403123163,9.163892881591702,1.6054326637815266,1.7024349949109532,124.04673412907869,332.50446894594995,8.470316129638611,351.8623046875,5.561137664263615,6,1,0,-1,0.828560324765872,0.1317264815432259,-1.2680965009891352,0.27261871099472046,0.03793419897556305,-0.030729223042726517,0.08878159523010254,-0.7369589805603027,-0.6700815558433533,0.04207775741815567,0.03072124719619751,0.0053324103355407715,0,0,0
1688762546.0058541,Zebra,36.982722680561025,-122.05144403123163,9.163892881591702,1.6054326637815266,1.7024349949109532,124.04673412907869,332.50446894594995,8.470316129638611,351.8623046875,5.561137664263615,6,2,-89,3.3900671901630313,0.828560324765872,0.1317264815432259,-1.2680965009891352,0.27261871099472046,0.03793419897556305,-0.030729223042726517,0.08878159523010254,-0.7369589805603027,-0.6700815558433533,0.04207775741815567,0.03072124719619751,0.0053324103355407715,0,0,0
1688762547.002739,Zebra,36.98281067315389,-122.05150336242149,9.797291655431742,1.5881395654952668,1.8413307533542906,125.58119075372815,332.10878931739825,7.749069126272661,352.87017822265625,5.516705365482242,6,1,0,-1,0.7995477812434092,0.057766257446317734,-1.2377267832927854,-0.06169609725475311,0.0363747775554657,-0.016773365437984467,0.04024248942732811,-0.7170409560203552,-0.6958684325218201,0.042704276740550995,0.0093231201171875,-0.03482919931411743,0,0,0
1688762547.002739,Zebra,36.98281067315389,-122.05150336242149,9.797291655431742,1.5881395654952668,1.8413307533542906,125.58119075372815,332.10878931739825,7.749069126272661,352.87017822265625,5.516705365482242,6,2,-76,1.454974274763325,0.7995477812434092,0.057766257446317734,-1.2377267832927854,-0.06169609725475311,0.0363747775554657,-0.016773365437984467,0.04024248942732811,-0.7170409560203552,-0.6958684325218201,0.042704276740550995,0.0093231201171875,-0.03482919931411743,0,0,0
1688762547.999613,Zebra,36.98289145906071,-122.0515585975101,9.891046374771246,1.3319602119566563,2.3816948862262914,125.58794604148716,330.76546955899136,6.599349865398269,352.87017822265625,5.305852099494705,6,1,0,-1,0.7839643721530115,0.06098128810951184,-1.2377351822892517,-0.0718834400177002,0.004927313886582851,-0.03370753303170204,0.043155305087566376,-0.7060922384262085,-0.7068036794662476,0.01423298567533493,-0.0626455545425415,-0.07134878635406494,0,0,0
1688762547.999613,Zebra,36.98289145906071,-122.0515585975101,9.891046374771246,1.3319602119566563,2.3816948862262914,125.58794604148716,330.76546955899136,6.599349865398269,352.87017822265625,5.305852099494705,6,2,-86,1.5514002986366133,0.7839643721530115,0.06098128810951184,-1.2377351822892517,-0.0718834400177002,0.004927313886582851,-0.03370753303170204,0.043155305087566376,-0.7060922384262085,-0.7068036794662476,0.01423298567533493,-0.0626455545425415,-0.07134878635406494,0,0,0
1688762548.996258,Zebra,36.98298270935015,-122.05161642732433,10.427696656079688,1.279081468518979,2.5989965427966526,126.02524120174348,331.51301017402756,6.065789608492946,66.11300659179688,5.202860175261285,6,2,-93,1.9004701976633835,0.0224116297580604,-3.0865981867912335,-2.5007732383626657,-0.4146449863910675,-0.09907501935958862,0.7544699907302856,-0.05495293065905571,-0.022409753873944283,0.9982371926307678,0.0327361524105072,0.17620307207107544,-0.14366894960403442,0,0,0
1688762548.996258,Zebra,36.98298270935015,-122.05161642732433,10.427696656079688,1.279081468518979,2.5989965427966526,126.02524120174348,331.51301017402756,6.065789608492946,66.11300659179688,5.202860175261285,6,1,-82,2.3265237330752098,0.0224116297580604,-3.0865981867912335,-2.5007732383626657,-0.4146449863910675,-0.09907501935958862,0.7544699907302856,-0.05495293065905571,-0.022409753873944283,0.9982371926307678,0.0327361524105072,0.17620307207107544,-0.14366894960403442,0,0,0
1688762550.008301,Zebra,36.98307297489968,-122.0516769759772,10.752625476306957,1.288761094174961,2.71884079929605,126.29165699891746,330.5715241388987,5.932551731480807,67.75401306152344,5.141249044820923,6,2,0,-1,-0.03907409980170574,-3.0129703825190193,-2.5203173759417443,0.005157690495252609,-0.00855065044015646,0.00564043503254652,-0.12816999852657318,0.039064157754182816,0.9909824728965759,-0.06750868260860443,-0.053254853934049606,-0.02299553155899048,0,0,0
1688762550.008301,Zebra,36.98307297489968,-122.0516769759772,10.752625476306957,1.288761094174961,2.71884079929605,126.29165699891746,330.5715241388987,5.932551731480807,67.75401306152344,5.141249044820923,6,1,-82,1.2688680486234685,-0.03907409980170574,-3.0129703825190193,-2.5203173759417443,0.005157690495252609,-0.00855065044015646,0.00564043503254652,-0.12816999852657318,0.039064157754182816,0.9909824728965759,-0.06750868260860443,-0.053254853934049606,-0.02299553155899048,0,0,0
1688762551.0007591,Zebra,36.9831612229212,-122.05173690988501,10.971876047718904,1.3145690541540418,2.7789286747094954,126.75989770330489,330.96074258574964,5.890887853196832,76.97420501708984,5.1090206941904395,6,1,-80,1.0456759394282604,-0.013560128221936276,2.810986291891902,-2.6709851579356747,0.18818077445030212,-2.0328567028045654,-0.8406127095222473,0.32458680868148804,0.013559713028371334,0.9457588195800781,0.06599250435829163,0.0634971559047699,0.13282406330108643,0,0,0
1688762551.0007591,Zebra,36.9831612229212,-122.05173690988501,10.971876047718904,1.3145690541540418,2.7789286747094954,126.75989770330489,330.96074258574964,5.890887853196832,76.97420501708984,5.1090206941904395,6,2,-90,2.128892700492769,-0.013560128221936276,2.810986291891902,-2.6709851579356747,0.18818077445030212,-2.0328567028045654,-0.8406127095222473,0.32458680868148804,0.013559713028371334,0.9457588195800781,0.06599250435829163,0.0634971559047699,0.13282406330108643,0,0,0
1688762552.005324,Zebra,36.98325282620453,-122.0517936229656,11.253527720090533,1.3417048222143102,2.797685907622563,127.27063073497266,331.7738440496447,5.867092530378202,104.49104309082031,5.098773440257858,6,1,-86,1.2700108511718189,0.2722681989229085,2.422784130911371,-3.0521877197574274,-0.476769357919693,-0.037171754986047745,-0.2649948298931122,0.6342317461967468,-0.2689167857170105,0.7248677015304565,-0.07220500707626343,-0.12544655799865723,-0.03500288724899292,0,0,0
1688762552.005324,Zebra,36.98325282620453,-122.0517936229656,11.253527720090533,1.3417048222143102,2.797685907622563,127.27063073497266,331.7738440496447,5.867092530378202,104.49104309082031,5.098773440257858,6,2,-90,2.425251398966567,0.2722681989229085,2.422784130911371,-3.0521877197574274,-0.476769357919693,-0.037171754986047745,-0.2649948298931122,0.6342317461967468,-0.2689167857170105,0.7248677015304565,-0.07220500707626343,-0.12544655799865723,-0.03500288724899292,0,0,0
1688762553.0076609,Zebra,36.983345403977225,-122.0518597974334,11.634887172230545,1.3245912893474596,2.799092616128379,127.99887597002089,331.5846668211515,5.613636328711878,102.57142639160156,5.09800132984726,6,1,-88,1.524918292602087,0.19846679332952752,2.5716914816345717,-3.0850946738817555,0.20322999358177185,0.000990165863186121,0.6828334331512451,0.5289576053619385,-0.19716645777225494,0.8254268765449524,0.014072239398956299,0.04071803390979767,-0.09562939405441284,0,0,0
1688762553.0076609,Zebra,36.983345403977225,-122.0518597974334,11.634887172230545,1.3245912893474596,2.799092616128379,127.99887597002089,331.5846668211515,5.613636328711878,102.57142639160156,5.09800132984726,6,2,-91,2.695739690475349,0.19846679332952752,2.5716914816345717,-3.0850946738817555,0.20322999358177185,0.000990165863186121,0.6828334331512451,0.5289576053619385,-0.19716645777225494,0.8254268765449524,0.014072239398956299,0.04071803390979767,-0.09562939405441284,0,0,0
1688762553.999045,Zebra,36.98343753114498,-122.05192124062022,11.824573582319431,1.3774113424993175,2.8308029205706067,128.82072919234633,331.13779953234763,5.620064601119958,106.44066619873047,5.080461776027624,6,2,0,-1,0.18933287775231186,2.4326019276395607,-3.125978908544077,0.1993144452571869,-0.26125645637512207,0.1611613631248474,0.6394333243370056,-0.18820373713970184,0.7454555630683899,0.010667264461517334,-0.03455929458141327,-0.020266473293304443,0,0,0
1688762553.999045,Zebra,36.98343753114498,-122.05192124062022,11.824573582319431,1.3774113424993175,2.8308029205706067,128.82072919234633,331.13779953234763,5.620064601119958,106.44066619873047,5.080461776027624,6,1,-85,1.5674278263799233,0.18933287775231186,2.4326019276395607,-3.125978908544077,0.1993144452571869,-0.26125645637512207,0.1611613631248474,0.6394333243370056,-0.18820373713970184,0.7454555630683899,0.010667264461517334,-0.03455929458141327,-0.020266473293304443,0,0,0
1688762554.998948,Zebra,36.983530939479564,-122.05198371458827,11.85998724927786,1.4240473218381635,2.8340578867069803,128.86760590970516,331.0036632791906,5.75386486762366,120.9334945678711,5.078646761449628,6,1,-85,1.5963003431939595,0.23681350553636119,3.012794985960705,2.8561565029471128,0.032040614634752274,-0.33291885256767273,0.10788802802562714,0.1248571127653122,-0.23460626602172852,0.9640387296676636,0.031163997948169708,-0.11904673278331757,0.14190304279327393,0,0,0
1688762554.998948,Zebra,36.983530939479564,-122.05198371458827,11.85998724927786,1.4240473218381635,2.8340578867069803,128.86760590970516,331.0036632791906,5.75386486762366,120.9334945678711,5.078646761449628,6,2,-89,2.7188036235563295,0.23681350553636119,3.012794985960705,2.8561565029471128,0.032040614634752274,-0.33291885256767273,0.10788802802562714,0.1248571127653122,-0.23460626602172852,0.9640387296676636,0.031163997948169708,-0.11904673278331757,0.14190304279327393,0,0,0
1688762556.070684,Zebra,36.983619814236135,-122.05204975159708,11.690987500122104,1.4609100560658825,2.8190508717111236,129.94186151772738,329.8810468832468,6.009481990323958,189.62216186523438,5.0869921579941115,6,1,-81,1.360669712375099,0.03819269044805472,-3.125075984696688,2.4060628090114404,-0.22984477877616882,0.033668581396341324,-0.26234790682792664,-0.016503874212503433,-0.03818340599536896,0.9991345405578613,-0.006933640688657761,0.004308879375457764,0.16819345951080322,0,0,0
1688762556.070684,Zebra,36.983619814236135,-122.05204975159708,11.690987500122104,1.4609100560658825,2.8190508717111236,129.94186151772738,329.8810468832468,6.009481990323958,189.62216186523438,5.0869921579941115,6,2,-88,2.6186751483364503,0.03819269044805472,-3.125075984696688,2.4060628090114404,-0.22984477877616882,0.033668581396341324,-0.26234790682792664,-0.016503874212503433,-0.03818340599536896,0.9991345405578613,-0.006933640688657761,0.004308879375457764,0.16819345951080322,0,0,0
1688762557.0054312,Zebra,36.983707555078034,-122.0521172322472,11.506388600333798,1.477358690053449,2.795958958993694,130.26356195937842,328.9662231497769,6.195618739094327,170.3104248046875,5.099720632780951,6,1,-82,1.2859057094448683,0.4297920917547643,2.87658576615624,3.0661972473917896,-0.06564895808696747,1.5078166723251343,-0.44185760617256165,0.2380952388048172,-0.41668182611465454,0.8773178458213806,-0.13689899444580078,-0.08585110306739807,-0.05111563205718994,0,0,0
1688762557.0054312,Zebra,36.983707555078034,-122.0521172322472,11.506388600333798,1.477358690053449,2.795958958993694,130.26356195937842,328.9662231497769,6.195618739094327,170.3104248046875,5.099720632780951,6,2,-88,2.566562302379412,0.4297920917547643,2.87658576615624,3.0661972473917896,-0.06564895808696747,1.5078166723251343,-0.44185760617256165,0.2380952388048172,-0.41668182611465454,0.8773178458213806,-0.13689899444580078,-0.08585110306739807,-0.05111563205718994,0,0,0
1688762557.998836,Zebra,36.98379108644898,-122.05217652647688,11.15079410998715,1.527552140123242,2.7519220289632935,130.983884784393,330.9600524902344,6.523604532920933,280.70831298828125,5.123618075080869,6,1,-84,1.335819259342057,0.6404032782729414,-2.6195752874231624,2.850962353628958,-0.059980183839797974,-0.2667233347892761,-0.2674950063228607,-0.3998286724090576,-0.5975188612937927,0.6950597167015076,-0.10749548673629761,0.1770172119140625,-0.07691103219985962,0,0,0
1688762557.998836,Zebra,36.98379108644898,-122.05217652647688,11.15079410998715,1.527552140123242,2.7519220289632935,130.983884784393,330.9600524902344,6.523604532920933,280.70831298828125,5.123618075080869,6,2,-82,1.924614123598895,0.6404032782729414,-2.6195752874231624,2.850962353628958,-0.059980183839797974,-0.2667233347892761,-0.2674950063228607,-0.3998286724090576,-0.5975188612937927,0.6950597167015076,-0.10749548673629761,0.1770172119140625,-0.07691103219985962,0,0,0
1688762558.9914389,Zebra,36.983878039822045,-122.0522388429974,11.081319839258038,1.5491755750638807,2.6889027869709055,131.67604370135814,330.9600524902344,6.704501077037123,342.451171875,5.156969927681267,6,1,-88,1.5481541593588464,0.9218769670294216,-2.8731993287273605,2.609311521107811,0.18052080273628235,-0.06289427727460861,-0.2223016768693924,-0.16025665402412415,-0.7967373132705688,0.5826897025108337,-0.02457304298877716,0.03907746076583862,-0.07770013809204102,0,0,0
1688762558.9914389,Zebra,36.983878039822045,-122.0522388429974,11.081319839258038,1.5491755750638807,2.6889027869709055,131.67604370135814,330.9600524902344,6.704501077037123,342.451171875,5.156969927681267,6,2,-87,1.9800469453717573,0.9218769670294216,-2.8731993287273605,2.609311521107811,0.18052080273628235,-0.06289427727460861,-0.2223016768693924,-0.16025665402412415,-0.7967373132705688,0.5826897025108337,-0.02457304298877716,0.03907746076583862,-0.07770013809204102,0,0,0
1688762560.004871,Zebra,36.98396774485992,-122.0522998697126,11.012948792119467,1.4680637368629872,2.713304799959538,132.44169374648482,330.9600524902344,6.4489986163102175,21.70313262939453,5.144172829066434,6,2,-82,1.6601949772470999,1.0200740367617862,-0.28664022306730824,-0.5147290100283225,-1.4969792366027832,-1.035263180732727,0.2280738353729248,-0.14795400202274323,-0.8521467447280884,-0.5019516348838806,-0.04113289713859558,0.28422999382019043,-0.18132168054580688,0,0,0
1688762560.004871,Zebra,36.98396774485992,-122.0522998697126,11.012948792119467,1.4680637368629872,2.713304799959538,132.44169374648482,330.9600524902344,6.4489986163102175,21.70313262939453,5.144172829066434,6,1,-96,2.0013327476847027,1.0200740367617862,-0.28664022306730824,-0.5147290100283225,-1.4969792366027832,-1.035263180732727,0.2280738353729248,-0.14795400202274323,-0.8521467447280884,-0.5019516348838806,-0.04113289713859558,0.28422999382019043,-0.18132168054580688,0,0,0
1688762561.00612,Zebra,36.98406306207642,-122.05236754539871,11.44131268580902,1.3262029119024208,2.8000793068701824,133.28759563807398,330.9600524902344,5.745241040360168,49.2365837097168,5.097459456241534,6,2,-82,1.4781032412374437,0.8689264971821148,0.1211203454392452,-1.2270503166066524,-0.21931740641593933,-0.0867297500371933,-0.06573446094989777,0.07800988852977753,-0.7636362910270691,-0.640916645526886,0.0005575940012931824,0.009287536144256592,0.11525130271911621,0,0,0
1688762561.00612,Zebra,36.98406306207642,-122.05236754539871,11.44131268580902,1.3262029119024208,2.8000793068701824,133.28759563807398,330.9600524902344,5.745241040360168,49.2365837097168,5.097459456241534,6,1,-96,2.4849367212778852,0.8689264971821148,0.1211203454392452,-1.2270503166066524,-0.21931740641593933,-0.0867297500371933,-0.06573446094989777,0.07800988852977753,-0.7636362910270691,-0.640916645526886,0.0005575940012931824,0.009287536144256592,0.11525130271911621,0,0,0
1688762562.006277,Zebra,36.9841714345219,-122.05240582291803,11.73276435483703,1.3459308608793612,2.964808169677186,133.7875814428553,330.9600524902344,5.601646536714078,50.25505065917969,5.003443769025914,6,1,0,-1,0.6806176820593999,0.08489517881221074,-1.2187427860162858,0.0017852303571999073,0.03134411200881004,0.046700261533260345,0.06589996814727783,-0.6292731761932373,-0.7743852138519287,-0.013196118175983429,0.03291398286819458,0.02317976951599121,0,0,0
1688762562.006277,Zebra,36.9841714345219,-122.05240582291803,11.73276435483703,1.3459308608793612,2.964808169677186,133.7875814428553,330.9600524902344,5.601646536714078,50.25505065917969,5.003443769025914,6,2,-79,1.1794980885904418,0.6806176820593999,0.08489517881221074,-1.2187427860162858,0.0017852303571999073,0.03134411200881004,0.046700261533260345,0.06589996814727783,-0.6292731761932373,-0.7743852138519287,-0.013196118175983429,0.03291398286819458,0.02317976951599121,0,0,0
1688762563.003903,Zebra,36.98427123512227,-122.0524738741033,12.11337120876519,1.346533322294883,2.9602623992002903,134.68936758395284,330.9600524902344,5.537663457839352,51.364627838134766,5.006134592744163,6,2,-81,1.1194202167786393,0.5463361051089567,0.025119632207123505,-1.1934144328307432,-0.009753629565238953,0.058877620846033096,0.03423038870096207,0.02146080695092678,-0.5195601582527161,-0.8541643023490906,-0.026480967178940773,0.02944791316986084,-0.028571903705596924,0,0,0
1688762563.003903,Zebra,36.98427123512227,-122.0524738741033,12.11337120876519,1.346533322294883,2.9602623992002903,134.68936758395284,330.9600524902344,5.537663457839352,51.364627838134766,5.006134592744163,6,1,-87,2.3906340405522486,0.5463361051089567,0.025119632207123505,-1.1934144328307432,-0.009753629565238953,0.058877620846033096,0.03423038870096207,0.02146080695092678,-0.5195601582527161,-0.8541643023490906,-0.026480967178940773,0.02944791316986084,-0.028571903705596924,0,0,0
1688762564.005248,Zebra,36.98436541034993,-122.052545201064,12.148975981226789,1.325261959009981,2.9845416878440165,135.35572596918792,330.9600524902344,5.470153294816569,50.337371826171875,4.991697902148129,6,2,-81,1.0790201324928468,0.6042885130153497,0.05308630740223309,-1.1960721813258395,-0.0013967696577310562,0.11805283278226852,-0.09795219451189041,0.04366455599665642,-0.5681767463684082,-0.8217473030090332,-0.0035949908196926117,0.02432304620742798,0.0588688850402832,0,0,0
1688762564.005248,Zebra,36.98436541034993,-122.052545201064,12.148975981226789,1.325261959009981,2.9845416878440165,135.35572596918792,330.9600524902344,5.470153294816569,50.337371826171875,4.991697902148129,6,1,-86,2.1877559503009256,0.6042885130153497,0.05308630740223309,-1.1960721813258395,-0.0013967696577310562,0.11805283278226852,-0.09795219451189041,0.04366455599665642,-0.5681767463684082,-0.8217473030090332,-0.0035949908196926117,0.02432304620742798,0.0588688850402832,0,0,0
1688762565.005396,Zebra,36.98446033785849,-122.05261503370032,12.244979241183861,1.3291385894729304,2.9994519860087823,135.6653210213408,331.11602783203125,5.4782273797487955,165.7950439453125,4.982752734826083,6,2,-87,1.2854213595548158,0.08696986366709904,-2.8109945467847557,3.0658423980604783,-0.17789459228515625,-0.01498362235724926,0.46168002486228943,-0.3233819305896759,-0.08686026930809021,0.9422734379768372,-0.0419287383556366,0.037940576672554016,-0.020474910736083984,0,0,0
1688762565.005396,Zebra,36.98446033785849,-122.05261503370032,12.244979241183861,1.3291385894729304,2.9994519860087823,135.6653210213408,331.11602783203125,5.4782273797487955,165.7950439453125,4.982752734826083,6,1,-84,1.9047737930052837,0.08696986366709904,-2.8109945467847557,3.0658423980604783,-0.17789459228515625,-0.01498362235724926,0.46168002486228943,-0.3233819305896759,-0.08686026930809021,0.9422734379768372,-0.0419287383556366,0.037940576672554016,-0.020474910736083984,0,0,0
