timestamp,username,latitude,longitude,speed,speedAcc,vertical_acc,                altitude,course,courseAcc,heading,horizontal_acc,major,minor,rssi,rssi_accuracy,                attitude_pitch,attitude_roll,attitude_yaw,rotation_rate_x,rotation_rate_y,                rotation_rate_z,gravity_accel_x,gravity_accel_y,gravity_accel_z,user_accel_x,                user_accel_y,user_accel_z,magnetic_field_x,magnetic_field_y,magnetic_field_z
1695165138.042313,Llama,37.00000253944881,-122.06217359703949,0,1.117002906416469,3.4535487237244995,246.04019567649812,279.8954679267342,180,241.78379821777344,4.679480552972704,3,1,-78,0.6812920690579612,1.0502789878948402,-0.595627358518882,-0.23603924715555097,-0.152703657746315,0.6334068775177002,0.0018820816185325384,-0.2790156602859497,-0.8675619959831238,-0.4116874039173126,-0.18297472596168518,0.21257847547531128,0.0776420533657074,0,0,0
1695165138.042313,Llama,37.00000253944881,-122.06217359703949,0,1.117002906416469,3.4535487237244995,246.04019567649812,279.8954679267342,180,241.78379821777344,4.679480552972704,3,2,-88,2.4484367468222272,1.0502789878948402,-0.595627358518882,-0.23603924715555097,-0.152703657746315,0.6334068775177002,0.0018820816185325384,-0.2790156602859497,-0.8675619959831238,-0.4116874039173126,-0.18297472596168518,0.21257847547531128,0.0776420533657074,0,0,0
1695165138.042313,Llama,37.00000253944881,-122.06217359703949,0,1.117002906416469,3.4535487237244995,246.04019567649812,279.8954679267342,180,230.20509338378906,4.679480552972704,3,1,-79,0.7675825296527706,0.6340680029701748,-0.7968375484045828,-0.1458746608166478,-0.7356573939323425,-0.49267280101776123,-0.2337033897638321,-0.5761415958404541,-0.5924269556999207,-0.5631086826324463,-0.14321881532669067,-0.09449326992034912,0.09499961137771606,0,0,0
1695165138.042313,Llama,37.00000253944881,-122.06217359703949,0,1.117002906416469,3.4535487237244995,246.04019567649812,279.8954679267342,180,230.20509338378906,4.679480552972704,3,2,-90,2.9907752145587017,0.6340680029701748,-0.7968375484045828,-0.1458746608166478,-0.7356573939323425,-0.49267280101776123,-0.2337033897638321,-0.5761415958404541,-0.5924269556999207,-0.5631086826324463,-0.14321881532669067,-0.09449326992034912,0.09499961137771606,0,0,0
1695165138.042313,Llama,37.00000253944881,-122.06217359703949,0,1.117002906416469,3.4535487237244995,246.04019567649812,279.8954679267342,180,262.5485534667969,4.679480552972704,3,1,-76,0.6166775019289247,0.6529177799708353,-0.2235501094390257,-0.8976033676639298,-0.31958720088005066,-0.031031446531414986,0.21976333856582642,-0.17609383165836334,-0.6075066328048706,-0.7745493650436401,-0.09560421109199524,0.09200364351272583,-0.06685078144073486,0,0,0
1695165138.042313,Llama,37.00000253944881,-122.06217359703949,0,1.117002906416469,3.4535487237244995,246.04019567649812,279.8954679267342,180,262.5485534667969,4.679480552972704,3,2,-88,2.7126932955970635,0.6529177799708353,-0.2235501094390257,-0.8976033676639298,-0.31958720088005066,-0.031031446531414986,0.21976333856582642,-0.17609383165836334,-0.6075066328048706,-0.7745493650436401,-0.09560421109199524,0.09200364351272583,-0.06685078144073486,0,0,0
1695165138.042313,Llama,37.00000253944881,-122.06217359703949,0,1.117002906416469,3.4535487237244995,246.04019567649812,279.8954679267342,180,250.0794219970703,4.679480552972704,3,1,-73,0.4661278071907715,0.4898586460827991,-0.05375690887925343,-0.7385291550671008,-0.40157824754714966,1.2277063131332397,0.03259380906820297,-0.047412220388650894,-0.4705011546611786,-0.88112473487854,0.1527741253376007,-0.1285894513130188,-0.27356886863708496,0,0,0
1695165138.042313,Llama,37.00000253944881,-122.06217359703949,0,1.117002906416469,3.4535487237244995,246.04019567649812,279.8954679267342,180,250.0794219970703,4.679480552972704,3,2,-82,1.8342438088873894,0.4898586460827991,-0.05375690887925343,-0.7385291550671008,-0.40157824754714966,1.2277063131332397,0.03259380906820297,-0.047412220388650894,-0.4705011546611786,-0.88112473487854,0.1527741253376007,-0.1285894513130188,-0.27356886863708496,0,0,0
1695165138.042313,Llama,37.00000253944881,-122.06217359703949,0,1.117002906416469,3.4535487237244995,246.04019567649812,279.8954679267342,180,251.09169006347656,4.679480552972704,3,1,-82,0.6362544008783684,0.39110612935144357,0.22333936760316292,-0.8115518411812792,0.05136674642562866,-0.7275806665420532,-0.9605756402015686,0.2047623246908188,-0.3812112510204315,-0.901526689529419,-0.1713760942220688,-0.11369231343269348,0.036124467849731445,0,0,0
1695165138.042313,Llama,37.00000253944881,-122.06217359703949,0,1.117002906416469,3.4535487237244995,246.04019567649812,279.8954679267342,180,251.09169006347656,4.679480552972704,3,2,-83,1.6251359974409314,0.39110612935144357,0.22333936760316292,-0.8115518411812792,0.05136674642562866,-0.7275806665420532,-0.9605756402015686,0.2047623246908188,-0.3812112510204315,-0.901526689529419,-0.1713760942220688,-0.11369231343269348,0.036124467849731445,0,0,0
1695165559.105736,Llama,37.00005078670863,-122.06244765727315,-1,-1,4.724711894989014,250.81192016601562,-1,-1,264.9389343261719,35,3,1,-83,0.8092849849361446,0.42000798960321395,-0.11788435825492648,-0.9753642596589407,0.35799533128738403,-0.41248640418052673,0.21349354088306427,-0.10738939046859741,-0.40776774287223816,-0.9067485928535461,0.01801861822605133,0.04018348455429077,-0.07050055265426636,0,0,0
1695165559.105736,Llama,37.00005078670863,-122.06244765727315,-1,-1,4.724711894989014,250.81192016601562,-1,-1,264.9389343261719,35,3,2,-81,1.3737470479789309,0.42000798960321395,-0.11788435825492648,-0.9753642596589407,0.35799533128738403,-0.41248640418052673,0.21349354088306427,-0.10738939046859741,-0.40776774287223816,-0.9067485928535461,0.01801861822605133,0.04018348455429077,-0.07050055265426636,0,0,0
1695165559.105736,Llama,37.00005078670863,-122.06244765727315,-1,-1,4.724711894989014,250.81192016601562,-1,-1,261.3327331542969,35,3,2,-72,0.6907879705351259,0.5025434696137111,-0.029537776805156783,-0.9210365515706825,-0.29285728931427,0.6766389012336731,0.1225442960858345,-0.025881972163915634,-0.48165610432624817,-0.8759780526161194,-0.006497211754322052,0.07627582550048828,-0.07996982336044312,0,0,0
1695165559.105736,Llama,37.00005078670863,-122.06244765727315,-1,-1,4.724711894989014,250.81192016601562,-1,-1,261.3327331542969,35,3,1,-84,0.9804454489334294,0.5025434696137111,-0.029537776805156783,-0.9210365515706825,-0.29285728931427,0.6766389012336731,0.1225442960858345,-0.025881972163915634,-0.48165610432624817,-0.8759780526161194,-0.006497211754322052,0.07627582550048828,-0.07996982336044312,0,0,0
1695165561.200969,Llama,36.9999280153187,-122.06219097610754,1.7699999809265137,1.2899999618530273,12,251.93800354003906,184.921875,42.286363679898436,250.91046142578125,29.933153699408845,3,2,-68,0.3568261840963377,0.38088531816978427,-0.091633347381147,-0.76312643936103,-0.06531701236963272,0.021858718246221542,-0.060557615011930466,-0.08494752645492554,-0.37174248695373535,-0.9244411587715149,-0.006956189870834351,-0.007331639528274536,0.1303890347480774,0,0,0
1695165561.200969,Llama,36.9999280153187,-122.06219097610754,1.7699999809265137,1.2899999618530273,12,251.93800354003906,184.921875,42.286363679898436,250.91046142578125,29.933153699408845,3,1,-79,0.8942858107861178,0.38088531816978427,-0.091633347381147,-0.76312643936103,-0.06531701236963272,0.021858718246221542,-0.060557615011930466,-0.08494752645492554,-0.37174248695373535,-0.9244411587715149,-0.006956189870834351,-0.007331639528274536,0.1303890347480774,0,0,0
1695165561.954039,Llama,36.99990680910368,-122.06219315540237,1.7699999809265137,1.7699999809265137,12,251.96205139160156,184.921875,59.669359042120966,154.46046447753906,32.012460968900335,3,2,-83,0.5342348445839766,0.30925937035512907,-0.15476759164062331,0.947984220270057,0.22692248225212097,0.4345484972000122,0.7955017685890198,-0.14683745801448822,-0.3043532371520996,-0.9411736726760864,0.15249848365783691,0.05125570297241211,-0.045993685722351074,0,0,0
1695165561.954039,Llama,36.99990680910368,-122.06219315540237,1.7699999809265137,1.7699999809265137,12,251.96205139160156,184.921875,59.669359042120966,154.46046447753906,32.012460968900335,3,1,-88,1.1577513810395468,0.30925937035512907,-0.15476759164062331,0.947984220270057,0.22692248225212097,0.4345484972000122,0.7955017685890198,-0.14683745801448822,-0.3043532371520996,-0.9411736726760864,0.15249848365783691,0.05125570297241211,-0.045993685722351074,0,0,0
1695165562.954,Llama,36.999890673940065,-122.06213565554661,1.7699999809265137,1.8200000524520874,3,250.71766662597656,0,39.38499835821998,99.41938018798828,28.104900741913774,3,2,-82,0.6967742296807594,0.4788896385490243,0.03667283072351169,1.8704876312292433,-0.05051350221037865,-0.007339935749769211,0.007584242150187492,0.032540105283260345,-0.46079400181770325,-0.8869104385375977,-0.11820290237665176,-0.05284741520881653,-0.061881065368652344,0,0,0
1695165562.954,Llama,36.999890673940065,-122.06213565554661,1.7699999809265137,1.8200000524520874,3,250.71766662597656,0,39.38499835821998,99.41938018798828,28.104900741913774,3,1,-84,1.246651782451734,0.4788896385490243,0.03667283072351169,1.8704876312292433,-0.05051350221037865,-0.007339935749769211,0.007584242150187492,0.032540105283260345,-0.46079400181770325,-0.8869104385375977,-0.11820290237665176,-0.05284741520881653,-0.061881065368652344,0,0,0
1695165563.9579182,Llama,37.000301010009835,-122.06200607132358,2.7899999618530273,1.75,4,250.80970764160156,319.921875,39.71684651413963,102.64791107177734,50.14411222481252,3,2,-77,0.6534661352603378,0.38163220614039156,-0.1188552343983409,1.8399496301561797,-0.2074863463640213,-0.6272781491279602,-0.5363847017288208,-0.11004503071308136,-0.3724357485771179,-0.9215105772018433,-0.00888194888830185,-0.022919535636901855,0.03947627544403076,0,0,0
1695165563.9579182,Llama,37.000301010009835,-122.06200607132358,2.7899999618530273,1.75,4,250.80970764160156,319.921875,39.71684651413963,102.64791107177734,50.14411222481252,3,1,-82,1.2087831695457563,0.38163220614039156,-0.1188552343983409,1.8399496301561797,-0.2074863463640213,-0.6272781491279602,-0.5363847017288208,-0.11004503071308136,-0.3724357485771179,-0.9215105772018433,-0.00888194888830185,-0.022919535636901855,0.03947627544403076,0,0,0
1695165564.9451509,Llama,37.00024141467828,-122.0620103460942,1.659999966621399,1.659999966621399,4,252.88392639160156,13.7109375,60.33468776917191,123.08763885498047,44.055087626743244,3,2,-75,0.5610558413027086,0.30545409059437384,-0.06657212237465848,1.4608624137523576,-0.06360666453838348,0.14648957550525665,0.005976492073386908,-0.06344364583492279,-0.3007262647151947,-0.9515979290008545,0.15244820713996887,-0.056344687938690186,0.0010364055633544922,0,0,0
1695165564.9451509,Llama,37.00024141467828,-122.0620103460942,1.659999966621399,1.659999966621399,4,252.88392639160156,13.7109375,60.33468776917191,123.08763885498047,44.055087626743244,3,1,-80,1.0799994699943967,0.30545409059437384,-0.06657212237465848,1.4608624137523576,-0.06360666453838348,0.14648957550525665,0.005976492073386908,-0.06344364583492279,-0.3007262647151947,-0.9515979290008545,0.15244820713996887,-0.056344687938690186,0.0010364055633544922,0,0,0
1695165566.059558,Llama,36.99970962483156,-122.06197723757667,1.659999966621399,1.6100000143051147,8,252.94190979003906,129.0234375,74.38341700502599,51.3495979309082,25.341872432763793,3,2,-72,0.42410423386162455,0.1389508953441665,-0.13701039363233442,2.752625320929595,-0.1287752389907837,0.27484720945358276,1.5646528005599976,-0.13526573777198792,-0.13850419223308563,-0.9810808897018433,0.025783926248550415,0.02738964557647705,0.18870729207992554,0,0,0
1695165566.059558,Llama,36.99970962483156,-122.06197723757667,1.659999966621399,1.6100000143051147,8,252.94190979003906,129.0234375,74.38341700502599,51.3495979309082,25.341872432763793,3,1,-84,1.181368730593553,0.1389508953441665,-0.13701039363233442,2.752625320929595,-0.1287752389907837,0.27484720945358276,1.5646528005599976,-0.13526573777198792,-0.13850419223308563,-0.9810808897018433,0.025783926248550415,0.02738964557647705,0.18870729207992554,0,0,0
1695165567.040791,Llama,36.99967693540919,-122.06201395031256,1.5299999713897705,1.25,6,251.07472229003906,58.359375,46.28221558965265,35.62279510498047,15.191950281724498,3,2,-78,0.5117083913030457,0.39846828429763187,0.08660402433937141,2.9566084943629227,0.36216017603874207,0.024496188387274742,-0.9624803066253662,0.0797194167971611,-0.3880070745944977,-0.9182022213935852,-0.2166670262813568,-0.021905094385147095,-0.23170006275177002,0,0,0
1695165567.040791,Llama,36.99967693540919,-122.06201395031256,1.5299999713897705,1.25,6,251.07472229003906,58.359375,46.28221558965265,35.62279510498047,15.191950281724498,3,1,-84,1.2603398425363772,0.39846828429763187,0.08660402433937141,2.9566084943629227,0.36216017603874207,0.024496188387274742,-0.9624803066253662,0.0797194167971611,-0.3880070745944977,-0.9182022213935852,-0.2166670262813568,-0.021905094385147095,-0.23170006275177002,0,0,0
1695165568.0572839,Llama,36.99983120433706,-122.06198704440338,1.5299999713897705,1.0099999904632568,6,251.30165100097656,50.2734375,28.395587691242767,83.93566131591797,14.108634524233757,3,1,0,-1,0.6863384717955383,0.21158902646881858,2.0698129905419678,-0.2842259407043457,0.5036293268203735,-0.06515945494174957,0.16246066987514496,-0.6337089538574219,-0.7563197016716003,0.17779511213302612,0.0967978835105896,0.14111590385437012,0,0,0
1695165568.0572839,Llama,36.99983120433706,-122.06198704440338,1.5299999713897705,1.0099999904632568,6,251.30165100097656,50.2734375,28.395587691242767,83.93566131591797,14.108634524233757,3,2,-72,0.4018737842280734,0.6863384717955383,0.21158902646881858,2.0698129905419678,-0.2842259407043457,0.5036293268203735,-0.06515945494174957,0.16246066987514496,-0.6337089538574219,-0.7563197016716003,0.17779511213302612,0.0967978835105896,0.14111590385437012,0,0,0
1695165569.040595,Llama,36.999864480492654,-122.06198545184178,0.5199999809265137,1.0499999523162842,6,252.77125549316406,18.6328125,76.74575404269079,91.01326751708984,10.510581936750592,3,2,-71,0.33268510954426933,0.5396486306700499,0.31376459583514227,1.927072842988211,-0.16627967357635498,0.06014282628893852,-0.30534353852272034,0.26478034257888794,-0.5138345956802368,-0.8160058259963989,-0.0037482082843780518,-0.02089446783065796,-0.0752142071723938,0,0,0
1695165569.040595,Llama,36.999864480492654,-122.06198545184178,0.5199999809265137,1.0499999523162842,6,252.77125549316406,18.6328125,76.74575404269079,91.01326751708984,10.510581936750592,3,1,-88,1.4872972022502486,0.5396486306700499,0.31376459583514227,1.927072842988211,-0.16627967357635498,0.06014282628893852,-0.30534353852272034,0.26478034257888794,-0.5138345956802368,-0.8160058259963989,-0.0037482082843780518,-0.02089446783065796,-0.0752142071723938,0,0,0
1695165570.037339,Llama,36.999898469110015,-122.06195846211357,4.260000228881836,0.7200000286102295,6,255.5608673095703,58.0078125,10.984513421342314,81.10587310791016,8.08697314222233,3,2,-71,0.30310434309371637,0.5710061260017921,0.3299887573470201,2.0932340319529876,0.36007314920425415,-0.2868606746196747,0.09994705021381378,0.2726271152496338,-0.5404788255691528,-0.7959629893302917,-0.06561106443405151,-0.05757421255111694,0.0048711299896240234,0,0,0
1695165570.037339,Llama,36.999898469110015,-122.06195846211357,4.260000228881836,0.7200000286102295,6,255.5608673095703,58.0078125,10.984513421342314,81.10587310791016,8.08697314222233,3,1,-84,1.4786455657364987,0.5710061260017921,0.3299887573470201,2.0932340319529876,0.36007314920425415,-0.2868606746196747,0.09994705021381378,0.2726271152496338,-0.5404788255691528,-0.7959629893302917,-0.06561106443405151,-0.05757421255111694,0.0048711299896240234,0,0,0
1695165571.038615,Llama,36.999934176017526,-122.06191202637,3.940000057220459,0.7400000095367432,6,256.47425842285156,62.2265625,12.155190769609575,64.22968292236328,7.05187224953026,3,2,-67,0.21295967035416385,1.06264455182525,0.15812448023422987,2.405874175695845,0.649086594581604,0.9549368619918823,-0.12688682973384857,0.07661738991737366,-0.8736453056335449,-0.48049336671829224,-0.22799980640411377,0.06619584560394287,0.08895289897918701,0,0,0
1695165571.038615,Llama,36.999934176017526,-122.06191202637,3.940000057220459,0.7400000095367432,6,256.47425842285156,62.2265625,12.155190769609575,64.22968292236328,7.05187224953026,3,1,-84,1.4747401020534712,1.06264455182525,0.15812448023422987,2.405874175695845,0.649086594581604,0.9549368619918823,-0.12688682973384857,0.07661738991737366,-0.8736453056335449,-0.48049336671829224,-0.22799980640411377,0.06619584560394287,0.08895289897918701,0,0,0
1695165572.0669541,Llama,36.999970302020195,-122.06185762781841,4.260000228881836,0.7699999809265137,6,255.6458282470703,65.7421875,9.472836317441228,65.54065704345703,6.492541506997257,3,2,-73,0.27775957361161147,1.1022959544114186,0.0922763434749469,2.4005706791431516,0.7260541319847107,-0.066860631108284,-0.006111010909080505,0.041608162224292755,-0.892246425151825,-0.44962769746780396,-0.03774766996502876,0.06889742612838745,0.007901102304458618,0,0,0
1695165572.0669541,Llama,36.999970302020195,-122.06185762781841,4.260000228881836,0.7699999809265137,6,255.6458282470703,65.7421875,9.472836317441228,65.54065704345703,6.492541506997257,3,1,-82,1.3454017588694467,1.1022959544114186,0.0922763434749469,2.4005706791431516,0.7260541319847107,-0.066860631108284,-0.006111010909080505,0.041608162224292755,-0.892246425151825,-0.44962769746780396,-0.03774766996502876,0.06889742612838745,0.007901102304458618,0,0,0
1695165573.0500588,Llama,37.000007224303666,-122.0617875551079,5.309999942779541,0.8299999833106995,6,255.6530303955078,70.6640625,9.442198650145489,62.958072662353516,6.1087933487787485,3,2,-75,0.3557448424031123,0.9144918307340049,-0.30056006842142974,2.6679321519172414,0.10879892855882645,0.04880322515964508,-0.057620059698820114,-0.18065090477466583,-0.7922526001930237,-0.5828388333320618,-0.024305135011672974,0.038086891174316406,0.02734273672103882,0,0,0
1695165573.0500588,Llama,37.000007224303666,-122.0617875551079,5.309999942779541,0.8299999833106995,6,255.6530303955078,70.6640625,9.442198650145489,62.958072662353516,6.1087933487787485,3,1,-89,1.6035869105388003,0.9144918307340049,-0.30056006842142974,2.6679321519172414,0.10879892855882645,0.04880322515964508,-0.057620059698820114,-0.18065090477466583,-0.7922526001930237,-0.5828388333320618,-0.024305135011672974,0.038086891174316406,0.02734273672103882,0,0,0
1695165574.044942,Llama,37.000023066481255,-122.06173126637883,5.309999942777703,0.8299999834771673,5.999999999999,255.65303262788802,70.66409637541469,9.442198650145581,65.07152557373047,6.108793348779733,3,2,-77,0.4485349053661888,1.0093749891763302,-0.20098514134130585,2.5874359746954023,0.28561288118362427,0.31789731979370117,-0.4060600697994232,-0.10628356039524078,-0.8464992642402649,-0.5216732621192932,0.08328855782747269,0.012758851051330566,0.05887418985366821,0,0,0
1695165574.044942,Llama,37.000023066481255,-122.06173126637883,5.309999942777703,0.8299999834771673,5.999999999999,255.65303262788802,70.66409637541469,9.442198650145581,65.07152557373047,6.108793348779733,3,1,-93,1.98889673111333,1.0093749891763302,-0.20098514134130585,2.5874359746954023,0.28561288118362427,0.31789731979370117,-0.4060600697994232,-0.10628356039524078,-0.8464992642402649,-0.5216732621192932,0.08328855782747269,0.012758851051330566,0.05887418985366821,0,0,0
1695165575.0351071,Llama,37.0000605739814,-122.06164032845635,6.630000114437342,0.750000000287287,5.999999999998306,256.57118571642786,70.6641047960792,7.356742967280946,65.56687927246094,5.857765316228358,3,2,-75,0.4557935883346218,0.9095083420466364,-0.22662974867531993,2.578875216895989,-0.24331948161125183,0.0662827119231224,-0.016094697639346123,-0.13799263536930084,-0.7892019152641296,-0.5984299182891846,0.02031688392162323,0.007143139839172363,0.01946580410003662,0,0,0
1695165575.0351071,Llama,37.0000605739814,-122.06164032845635,6.630000114437342,0.750000000287287,5.999999999998306,256.57118571642786,70.6641047960792,7.356742967280946,65.56687927246094,5.857765316228358,3,1,-84,1.810630500757048,0.9095083420466364,-0.22662974867531993,2.578875216895989,-0.24331948161125183,0.0662827119231224,-0.016094697639346123,-0.13799263536930084,-0.7892019152641296,-0.5984299182891846,0.02031688392162323,0.007143139839172363,0.01946580410003662,0,0,0
1695165576.039207,Llama,37.00008828367789,-122.06156126414787,6.630000114437343,0.8199999931100935,5.9999999999984235,256.4749332750216,72.77348031436247,8.276322924864823,69.98771667480469,6.07616456617663,3,2,-76,0.48634173717582824,0.81542760264025,-0.05507607331141474,2.4005493491557552,-0.009364308789372444,0.13112476468086243,-0.1285373568534851,-0.03773871064186096,-0.7280188202857971,-0.6845176815986633,0.030963830649852753,0.03607839345932007,0.020089030265808105,0,0,0
1695165576.039207,Llama,37.00008828367789,-122.06156126414787,6.630000114437343,0.8199999931100935,5.9999999999984235,256.4749332750216,72.77348031436247,8.276322924864823,69.98771667480469,6.07616456617663,3,1,-82,1.5587166582438314,0.81542760264025,-0.05507607331141474,2.4005493491557552,-0.009364308789372444,0.13112476468086243,-0.1285373568534851,-0.03773871064186096,-0.7280188202857971,-0.6845176815986633,0.030963830649852753,0.03607839345932007,0.020089030265808105,0,0,0
1695165577.0390902,Llama,37.00011661559844,-122.06148810764844,6.460000038143664,0.9800000192819758,5.999999999998425,255.8770327102393,73.1250417949764,10.108167707431136,73.28820037841797,5.923083263409807,3,2,-75,0.4760696651343065,0.7966242087332858,0.023574813543228386,2.315759021159617,-0.299537718296051,-0.15087774395942688,-0.03958790376782417,0.016480201855301857,-0.7150000929832458,-0.6989302039146423,0.08460929989814758,-0.0443841814994812,-0.00887918472290039,0,0,0
1695165577.0390902,Llama,37.00011661559844,-122.06148810764844,6.460000038143664,0.9800000192819758,5.999999999998425,255.8770327102393,73.1250417949764,10.108167707431136,73.28820037841797,5.923083263409807,3,1,-83,1.4739487114466125,0.7966242087332858,0.023574813543228386,2.315759021159617,-0.299537718296051,-0.15087774395942688,-0.03958790376782417,0.016480201855301857,-0.7150000929832458,-0.6989302039146423,0.08460929989814758,-0.0443841814994812,-0.00887918472290039,0,0,0
1695165578.045061,Llama,37.0001418978209,-122.06141150450806,6.460000038143664,0.8999999763852198,5.999999999998451,255.93165917415172,74.53129209317747,8.897289573256414,75.49822235107422,5.973042292425508,3,2,-74,0.44302399330283376,0.7736206167953777,0.033028473488629397,2.2715973649796624,0.14689289033412933,-0.08302019536495209,-0.058260515332221985,0.02362379990518093,-0.698729932308197,-0.7149954438209534,-0.025149650871753693,0.046721816062927246,-0.051606059074401855,0,0,0
1695165578.045061,Llama,37.0001418978209,-122.06141150450806,6.460000038143664,0.8999999763852198,5.999999999998451,255.93165917415172,74.53129209317747,8.897289573256414,75.49822235107422,5.973042292425508,3,1,-88,1.661860706947245,0.7736206167953777,0.033028473488629397,2.2715973649796624,0.14689289033412933,-0.08302019536495209,-0.058260515332221985,0.02362379990518093,-0.698729932308197,-0.7149954438209534,-0.025149650871753693,0.046721816062927246,-0.051606059074401855,0,0,0
1695165579.047104,Llama,37.0001642765941,-122.06133392079042,6.510000228878451,1.0499999525137873,5.999999999998354,256.32179594412446,75.58598012839798,10.46414692168846,76.96408081054688,5.832196563788774,3,2,-72,0.3742748800194122,0.7117202083933039,0.05961398997119339,2.2578678009069497,-0.4313364028930664,0.6827163696289062,0.6219722032546997,0.045115333050489426,-0.6531373262405396,-0.7558943629264832,0.5925495028495789,-0.24865716695785522,-0.16343235969543457,0,0,0
1695165579.047104,Llama,37.0001642765941,-122.06133392079042,6.510000228878451,1.0499999525137873,5.999999999998354,256.32179594412446,75.58598012839798,10.46414692168846,76.96408081054688,5.832196563788774,3,1,-82,1.4712311721067726,0.7117202083933039,0.05961398997119339,2.2578678009069497,-0.4313364028930664,0.6827163696289062,0.6219722032546997,0.045115333050489426,-0.6531373262405396,-0.7558943629264832,0.5925495028495789,-0.24865716695785522,-0.16343235969543457,0,0,0
1695165580.0375152,Llama,37.000179593271625,-122.06125473165231,6.449999809261844,0.7799999716510327,5.9999999999979865,255.43800681922585,78.39848021735786,7.879620415228527,84.50791931152344,4.965026160716461,3,2,-78,0.4775271807742272,0.5002598081711254,0.2065128305895851,1.73541448884134,1.7771258354187012,-1.7732080221176147,-1.5570727586746216,0.17992107570171356,-0.479653537273407,-0.8588137030601501,0.1251174360513687,0.1934443712234497,-0.19944435358047485,0,0,0
1695165580.0375152,Llama,37.000179593271625,-122.06125473165231,6.449999809261844,0.7799999716510327,5.9999999999979865,255.43800681922585,78.39848021735786,7.879620415228527,84.50791931152344,4.965026160716461,3,1,-89,1.6993871947146892,0.5002598081711254,0.2065128305895851,1.73541448884134,1.7771258354187012,-1.7732080221176147,-1.5570727586746216,0.17992107570171356,-0.479653537273407,-0.8588137030601501,0.1251174360513687,0.1934443712234497,-0.19944435358047485,0,0,0
1695165581.046373,Llama,37.00021721997013,-122.06114259733013,6.449999809261846,1.2599999906245738,5.999999999997974,256.2692446121946,80.50785551070531,12.799884641404265,119.98641967773438,4.933568684812505,3,2,-74,0.44310835007689797,0.58665830310134,0.051833616303201956,1.4965847442209796,-0.12207766622304916,0.19213873147964478,-0.24377548694610596,0.043147459626197815,-0.553581178188324,-0.831676721572876,-0.04665694013237953,0.060707032680511475,-0.08699387311935425,0,0,0
1695165581.046373,Llama,37.00021721997013,-122.06114259733013,6.449999809261846,1.2599999906245738,5.999999999997974,256.2692446121946,80.50785551070531,12.799884641404265,119.98641967773438,4.933568684812505,3,1,-84,1.627530444430527,0.58665830310134,0.051833616303201956,1.4965847442209796,-0.12207766622304916,0.19213873147964478,-0.24377548694610596,0.043147459626197815,-0.553581178188324,-0.831676721572876,-0.04665694013237953,0.060707032680511475,-0.08699387311935425,0,0,0
1695165582.041576,Llama,37.00020345480128,-122.06106185610827,6.3899998664823965,1.5700000525788673,4.000000000000252,253.85481584072113,81.91410527261272,17.430716186406112,124.02371978759766,6.003429078085074,3,2,-72,0.37405768970098996,0.5366881145270834,0.07851935131214945,1.355682018976974,-0.8056467771530151,0.9204244017601013,-0.051085710525512695,0.06741074472665787,-0.5112925171852112,-0.8567588925361633,-0.03983807563781738,0.17019754648208618,-0.14171522855758667,0,0,0
1695165582.041576,Llama,37.00020345480128,-122.06106185610827,6.3899998664823965,1.5700000525788673,4.000000000000252,253.85481584072113,81.91410527261272,17.430716186406112,124.02371978759766,6.003429078085074,3,1,-80,1.3157183369956729,0.5366881145270834,0.07851935131214945,1.355682018976974,-0.8056467771530151,0.9204244017601013,-0.051085710525512695,0.06741074472665787,-0.5112925171852112,-0.8567588925361633,-0.03983807563781738,0.17019754648208618,-0.14171522855758667,0,0,0
1695165583.070675,Llama,37.00021484404657,-122.06100870508239,5.809999942777136,1.1000000239919343,4.000000000000028,253.1059139193967,80.50785124299345,13.340271279289071,126.92321014404297,5.706210096013513,3,2,-69,0.2762627508243135,0.5015113588167704,0.13153525103715408,1.248187163963573,0.0831427276134491,-0.086823970079422,0.009743495844304562,0.11500530689954758,-0.4807513356208801,-0.8692824244499207,-0.025375142693519592,0.04901909828186035,-0.0033371448516845703,0,0,0
1695165583.070675,Llama,37.00021484404657,-122.06100870508239,5.809999942777136,1.1000000239919343,4.000000000000028,253.1059139193967,80.50785124299345,13.340271279289071,126.92321014404297,5.706210096013513,3,1,-85,1.402054512345115,0.5015113588167704,0.13153525103715408,1.248187163963573,0.0831427276134491,-0.086823970079422,0.009743495844304562,0.11500530689954758,-0.4807513356208801,-0.8692824244499207,-0.025375142693519592,0.04901909828186035,-0.0033371448516845703,0,0,0
1695165584.056993,Llama,37.000199225834095,-122.06092365836655,5.809999942777136,3.660000085874405,6.000000000000894,252.80934409517795,90.35160178005046,34.61583926082608,126.92321014404297,9.896850388887227,3,2,-77,0.3860691673120619,0.4946852981230712,0.090681830737145,1.2511486581911968,0.03556511178612709,0.06524058431386948,-0.11194266378879547,0.07970138639211655,-0.4747546911239624,-0.8765019774436951,0.00042256712913513184,-0.0038677752017974854,-0.11170297861099243,0,0,0
1695165584.056993,Llama,37.000199225834095,-122.06092365836655,5.809999942777136,3.660000085874405,6.000000000000894,252.80934409517795,90.35160178005046,34.61583926082608,126.92321014404297,9.896850388887227,3,1,-84,1.4207744606768915,0.4946852981230712,0.090681830737145,1.2511486581911968,0.03556511178612709,0.06524058431386948,-0.11194266378879547,0.07970138639211655,-0.4747546911239624,-0.8765019774436951,0.00042256712913513184,-0.0038677752017974854,-0.11170297861099243,0,0,0
1695165585.044838,Llama,37.000181874066506,-122.06092811618579,4.36000013351339,2.4200000763319056,6.00000000000037,252.21168669313192,94.5703418837833,33.890503906822026,127.9259033203125,9.542497911453566,3,2,-79,0.5137676186279545,0.4913212384416036,0.05833747084596111,1.2544251476765693,0.04010382294654846,0.02237543836236,-0.004418856464326382,0.0514075793325901,-0.47179123759269714,-0.8802103996276855,-0.027100279927253723,0.029225289821624756,-0.03162431716918945,0,0,0
1695165585.044838,Llama,37.000181874066506,-122.06092811618579,4.36000013351339,2.4200000763319056,6.00000000000037,252.21168669313192,94.5703418837833,33.890503906822026,127.9259033203125,9.542497911453566,3,1,-88,1.6213671668073684,0.4913212384416036,0.05833747084596111,1.2544251476765693,0.04010382294654846,0.02237543836236,-0.004418856464326382,0.0514075793325901,-0.47179123759269714,-0.8802103996276855,-0.027100279927253723,0.029225289821624756,-0.03162431716918945,0,0,0
1695165586.041364,Llama,37.00016425449457,-122.06086035277954,5.010000228880293,2.289999961906087,6.000000000001209,252.6065235938877,99.1406584419181,28.50358834994632,127.9259033203125,10.916186231402124,3,2,-82,0.6846064850113516,0.49650329864170367,0.05030034113556015,1.2575978150645553,-0.0036816555075347424,0.0517074316740036,-0.01833309233188629,0.0442081093788147,-0.4763539731502533,-0.8781415820121765,0.01144072413444519,0.017506897449493408,-0.004686176776885986,0,0,0
1695165586.041364,Llama,37.00016425449457,-122.06086035277954,5.010000228880293,2.289999961906087,6.000000000001209,252.6065235938877,99.1406584419181,28.50358834994632,127.9259033203125,10.916186231402124,3,1,-88,1.7954829283492753,0.49650329864170367,0.05030034113556015,1.2575978150645553,-0.0036816555075347424,0.0517074316740036,-0.01833309233188629,0.0442081093788147,-0.4763539731502533,-0.8781415820121765,0.01144072413444519,0.017506897449493408,-0.004686176776885986,0,0,0
1695165587.045734,Llama,37.00013636618184,-122.06082445680538,4.440000057219385,2.000000000047909,6.000000000000879,252.80885471589863,111.09377800687362,28.19047540291999,127.9259033203125,10.753198531270305,3,2,-85,0.9063576123453266,0.5011926020051989,0.0425449297904,1.2612860947176008,0.03498593717813492,-0.036618538200855255,0.001330765662714839,0.03730108216404915,-0.48047178983688354,-0.8762165904045105,-0.0036859363317489624,-0.010723918676376343,-0.017109215259552002,0,0,0
1695165587.045734,Llama,37.00013636618184,-122.06082445680538,4.440000057219385,2.000000000047909,6.000000000000879,252.80885471589863,111.09377800687362,28.19047540291999,127.9259033203125,10.753198531270305,3,1,-88,1.9389170648052052,0.5011926020051989,0.0425449297904,1.2612860947176008,0.03498593717813492,-0.036618538200855255,0.001330765662714839,0.03730108216404915,-0.48047178983688354,-0.8762165904045105,-0.0036859363317489624,-0.010723918676376343,-0.017109215259552002,0,0,0
1695165588.053071,Llama,37.00012198493296,-122.06078487914749,4.440000057219386,1.7300000191289955,6.0000000000000995,253.05977024510503,107.22659117170393,27.73776704963699,127.9259033203125,8.767712744589407,3,2,-79,0.8513640796920066,0.5325445146355965,0.09982480899588345,1.2264349259228076,-0.22129467129707336,-0.17178359627723694,0.11135640740394592,0.08585810661315918,-0.5077271461486816,-0.8572289943695068,0.1356079876422882,-0.13388967514038086,0.1928003430366516,0,0,0
1695165588.053071,Llama,37.00012198493296,-122.06078487914749,4.440000057219386,1.7300000191289955,6.0000000000000995,253.05977024510503,107.22659117170393,27.73776704963699,127.9259033203125,8.767712744589407,3,1,-85,1.8577440229822118,0.5325445146355965,0.09982480899588345,1.2264349259228076,-0.22129467129707336,-0.17178359627723694,0.11135640740394592,0.08585810661315918,-0.5077271461486816,-0.8572289943695068,0.1356079876422882,-0.13388967514038086,0.1928003430366516,0,0,0
1695165589.0430732,Llama,37.0001092109495,-122.06077841384644,3.900000095366703,1.0399999619246674,5.999999999999509,253.83174254652113,115.31252383586413,41.87810278263928,127.9259033203125,6.36305313164158,3,2,-87,1.095786106461179,0.6131356228985081,0.11774555778076277,1.2265854763362418,-0.03232146054506302,-0.011660076677799225,-0.06532261520624161,0.09607557952404022,-0.5754347443580627,-0.8121849894523621,0.08196401596069336,-0.14433765411376953,0.15265434980392456,0,0,0
1695165589.0430732,Llama,37.0001092109495,-122.06077841384644,3.900000095366703,1.0399999619246674,5.999999999999509,253.83174254652113,115.31252383586413,41.87810278263928,127.9259033203125,6.36305313164158,3,1,-84,1.7349002274744778,0.6131356228985081,0.11774555778076277,1.2265854763362418,-0.03232146054506302,-0.011660076677799225,-0.06532261520624161,0.09607557952404022,-0.5754347443580627,-0.8121849894523621,0.08196401596069336,-0.14433765411376953,0.15265434980392456,0,0,0
1695165590.038344,Llama,37.00011818261832,-122.06081482241844,0.5699999928474402,0.9399999976175073,5.999999999999986,254.049942064099,118.4765658874465,70.7126616091967,127.9259033203125,5.578839700930348,3,2,-74,0.692794704285913,0.7148844526318261,0.14770501459358262,1.199328818294329,0.016953250393271446,0.014987638220191002,-0.017135608941316605,0.11113710701465607,-0.6555301547050476,-0.7469462752342224,0.01578553020954132,-0.019976496696472168,0.10940361022949219,0,0,0
1695165590.038344,Llama,37.00011818261832,-122.06081482241844,0.5699999928474402,0.9399999976175073,5.999999999999986,254.049942064099,118.4765658874465,70.7126616091967,127.9259033203125,5.578839700930348,3,1,-86,1.775354951341999,0.7148844526318261,0.14770501459358262,1.199328818294329,0.016953250393271446,0.014987638220191002,-0.017135608941316605,0.11113710701465607,-0.6555301547050476,-0.7469462752342224,0.01578553020954132,-0.019976496696472168,0.10940361022949219,0,0,0
1695165591.042266,Llama,37.0001206314537,-122.06082045111998,0,0.9800000190734862,5.999999999999995,254.04994203802198,118.47656249999999,115.98348291499755,131.2742156982422,5.640895201909727,3,2,-76,0.6200388230170369,0.7621640032774508,0.16647897112779095,1.1549174600410383,0.05823872610926628,-0.0573275201022625,0.11153974384069443,0.11986599117517471,-0.6904883980751038,-0.7133427858352661,-0.029640741646289825,-0.03926318883895874,0.07677668333053589,0,0,0
1695165591.042266,Llama,37.0001206314537,-122.06082045111998,0,0.9800000190734862,5.999999999999995,254.04994203802198,118.47656249999999,115.98348291499755,131.2742156982422,5.640895201909727,3,1,-81,1.4693126030061556,0.7621640032774508,0.16647897112779095,1.1549174600410383,0.05823872610926628,-0.0573275201022625,0.11153974384069443,0.11986599117517471,-0.6904883980751038,-0.7133427858352661,-0.029640741646289825,-0.03926318883895874,0.07677668333053589,0,0,0
1695165592.0376601,Llama,37.00012431457208,-122.06077511891336,1.5099999904632146,0.7699999809410067,5.999999999999892,250.481277666986,85.78126018126785,14.014106153178151,131.31326293945312,5.026447001541035,3,2,-90,0.90900623064134,0.7570387200422349,0.11933185426930976,1.1519291768194935,0.0012397756800055504,-0.0058580245822668076,-0.11105571687221527,0.08653338253498077,-0.6867719888687134,-0.7217037081718445,-0.06457594037055969,-0.0858110785484314,-0.18834567070007324,0,0,0
1695165592.0376601,Llama,37.00012431457208,-122.06077511891336,1.5099999904632146,0.7699999809410067,5.999999999999892,250.481277666986,85.78126018126785,14.014106153178151,131.31326293945312,5.026447001541035,3,1,-81,1.2992929164717104,0.7570387200422349,0.11933185426930976,1.1519291768194935,0.0012397756800055504,-0.0058580245822668076,-0.11105571687221527,0.08653338253498077,-0.6867719888687134,-0.7217037081718445,-0.06457594037055969,-0.0858110785484314,-0.18834567070007324,0,0,0
1695165593.047001,Llama,37.00014080998205,-122.0607116869818,3.5599999427789872,1.0199999809873062,5.99999999999942,250.00080973189324,79.80471118870655,16.143000131616052,134.51576232910156,5.212195347417563,3,2,-88,1.1855104843530686,0.764676093020697,0.10143685790271567,1.1173459507378425,-0.6563825607299805,-0.4564639627933502,0.19325245916843414,0.07307205349206924,-0.6923032999038696,-0.7178974151611328,-0.04639962315559387,-0.24312156438827515,-0.06599235534667969,0,0,0
1695165593.047001,Llama,37.00014080998205,-122.0607116869818,3.5599999427789872,1.0199999809873062,5.99999999999942,250.00080973189324,79.80471118870655,16.143000131616052,134.51576232910156,5.212195347417563,3,1,-88,1.5065886550811491,0.764676093020697,0.10143685790271567,1.1173459507378425,-0.6563825607299805,-0.4564639627933502,0.19325245916843414,0.07307205349206924,-0.6923032999038696,-0.7178974151611328,-0.04639962315559387,-0.24312156438827515,-0.06599235534667969,0,0,0
1695165594.041471,Llama,37.00023928367035,-122.0607759451033,3.841009453438231,2.3006973626289167,2.1565959022678087,245.64605717360973,68.72582163421411,31.567917194792297,139.0524139404297,5.401261995784924,3,2,-80,1.0599900828748319,0.7607930392295564,0.1645616393703401,1.0019776981352497,-0.34458214044570923,-0.37713220715522766,-0.03218468651175499,0.11865303665399551,-0.6894960403442383,-0.7145044803619385,-0.10224977880716324,-0.01579570770263672,-0.021762549877166748,0,0,0
1695165594.041471,Llama,37.00023928367035,-122.0607759451033,3.841009453438231,2.3006973626289167,2.1565959022678087,245.64605717360973,68.72582163421411,31.567917194792297,139.0524139404297,5.401261995784924,3,1,-85,1.550109349276309,0.7607930392295564,0.1645616393703401,1.0019776981352497,-0.34458214044570923,-0.37713220715522766,-0.03218468651175499,0.11865303665399551,-0.6894960403442383,-0.7145044803619385,-0.10224977880716324,-0.01579570770263672,-0.021762549877166748,0,0,0
1695165595.04254,Llama,37.0001660657522,-122.06054420689914,7.761226564027625,2.0892350109215245,2.554191804777764,245.33363352622837,97.86463908500149,14.25688876264242,142.25193786621094,5.225001555712203,3,2,-73,0.6402536375149848,0.7415075774432113,0.2283436825280363,0.919369318806552,-0.03214952349662781,-0.027487862855196,0.006349243689328432,0.16693279147148132,-0.67540043592453,-0.7183089256286621,-0.03328099846839905,0.02043217420578003,0.035340845584869385,0,0,0
1695165595.04254,Llama,37.0001660657522,-122.06054420689914,7.761226564027625,2.0892350109215245,2.554191804777764,245.33363352622837,97.86463908500149,14.25688876264242,142.25193786621094,5.225001555712203,3,1,-86,1.6358170148546836,0.7415075774432113,0.2283436825280363,0.919369318806552,-0.03214952349662781,-0.027487862855196,0.006349243689328432,0.16693279147148132,-0.67540043592453,-0.7183089256286621,-0.03328099846839905,0.02043217420578003,0.035340845584869385,0,0,0
1695165596.043181,Llama,37.000137239913144,-122.06042166458033,8.785446225761346,2.062063326494547,2.39280306020372,245.1481947656721,101.85110323982578,13.363310310277416,143.3748016357422,5.300851870017549,3,2,-89,0.9040898005518039,0.7401840463873799,0.23337579796024663,0.9085115532091907,0.07935059070587158,-0.10199479013681412,0.10718495398759842,0.17075183987617493,-0.6744238138198853,-0.7183288335800171,0.02201247215270996,0.042984604835510254,-0.11542659997940063,0,0,0
1695165596.043181,Llama,37.000137239913144,-122.06042166458033,8.785446225761346,2.062063326494547,2.39280306020372,245.1481947656721,101.85110323982578,13.363310310277416,143.3748016357422,5.300851870017549,3,1,-86,1.7018476020266806,0.7401840463873799,0.23337579796024663,0.9085115532091907,0.07935059070587158,-0.10199479013681412,0.10718495398759842,0.17075183987617493,-0.6744238138198853,-0.7183288335800171,0.02201247215270996,0.042984604835510254,-0.11542659997940063,0,0,0
1695165597.065765,Llama,37.000111587862484,-122.06031345532051,9.068872270196062,2.215175360700286,2.315028124088408,245.05075344536453,102.83151115115297,13.005069209633144,145.16213989257812,5.335277107842529,3,2,-73,0.5825167792638762,0.6800757990869101,0.4180149880369941,0.8239917109076594,-0.05702604725956917,0.04191909357905388,-0.17476919293403625,0.3156340718269348,-0.6288519501686096,-0.7105774879455566,-0.15205982327461243,0.13019472360610962,0.09676223993301392,0,0,0
1695165597.065765,Llama,37.000111587862484,-122.06031345532051,9.068872270196062,2.215175360700286,2.315028124088408,245.05075344536453,102.83151115115297,13.005069209633144,145.16213989257812,5.335277107842529,3,1,-89,1.908235913998334,0.6800757990869101,0.4180149880369941,0.8239917109076594,-0.05702604725956917,0.04191909357905388,-0.17476919293403625,0.3156340718269348,-0.6288519501686096,-0.7105774879455566,-0.15205982327461243,0.13019472360610962,0.09676223993301392,0,0,0
1695165598.046107,Llama,37.00007427671158,-122.06018162880059,9.749332085193316,2.2800422954881077,2.265120981262555,244.93240976147354,103.63078354669028,12.714627846078637,143.67208862304688,5.356656043935712,3,2,-83,0.7454941302683835,0.6606414971787472,0.3445996629709601,0.8714333968891324,-0.04959644004702568,-0.024967201054096222,-0.04412327706813812,0.26674216985702515,-0.6136234998703003,-0.7431789040565491,-0.06398332118988037,0.1860874891281128,0.11138874292373657,0,0,0
1695165598.046107,Llama,37.00007427671158,-122.06018162880059,9.749332085193316,2.2800422954881077,2.265120981262555,244.93240976147354,103.63078354669028,12.714627846078637,143.67208862304688,5.356656043935712,3,1,-81,1.5327791463384557,0.6606414971787472,0.3445996629709601,0.8714333968891324,-0.04959644004702568,-0.024967201054096222,-0.04412327706813812,0.26674216985702515,-0.6136234998703003,-0.7431789040565491,-0.06398332118988037,0.1860874891281128,0.11138874292373657,0,0,0
1695165599.050929,Llama,37.00004357067394,-122.06004613759575,10.37149378691201,1.8924365158353653,2.4912520021521027,245.10190267581493,103.8294888826829,10.160987969855801,140.85394287109375,5.255302131615458,3,2,-76,0.6424117763133511,0.7212966999507865,0.3845213867383234,0.8888637152186776,-0.04829085245728493,0.020397650077939034,0.053520575165748596,0.2816930413246155,-0.6603589653968811,-0.6961142420768738,-0.0718846321105957,0.12358522415161133,0.15439677238464355,0,0,0
1695165599.050929,Llama,37.00004357067394,-122.06004613759575,10.37149378691201,1.8924365158353653,2.4912520021521027,245.10190267581493,103.8294888826829,10.160987969855801,140.85394287109375,5.255302131615458,3,1,-87,1.666371949948389,0.7212966999507865,0.3845213867383234,0.8888637152186776,-0.04829085245728493,0.020397650077939034,0.053520575165748596,0.2816930413246155,-0.6603589653968811,-0.6961142420768738,-0.0718846321105957,0.12358522415161133,0.15439677238464355,0,0,0
1695165600.032908,Llama,37.00000922995193,-122.05991621624602,10.769030464484077,1.9115228502458983,2.5838241946178657,244.58465431816876,106.35396095361061,9.785928570840234,143.7233428955078,5.21041165015742,3,2,-80,0.7195927445474717,0.5210825988340289,0.159152692896328,0.9436500237739605,-0.1039237380027771,0.458867609500885,0.16775692999362946,0.13744810223579407,-0.49781933426856995,-0.8563200235366821,-0.03628227114677429,0.02633798122406006,0.01821577548980713,0,0,0
1695165600.032908,Llama,37.00000922995193,-122.05991621624602,10.769030464484077,1.9115228502458983,2.5838241946178657,244.58465431816876,106.35396095361061,9.785928570840234,143.7233428955078,5.21041165015742,3,1,-82,1.476011927575207,0.5210825988340289,0.159152692896328,0.9436500237739605,-0.1039237380027771,0.458867609500885,0.16775692999362946,0.13744810223579407,-0.49781933426856995,-0.8563200235366821,-0.03628227114677429,0.02633798122406006,0.01821577548980713,0,0,0
1695165601.050156,Llama,36.99999437343533,-122.05979864585646,10.998908332809451,1.5314321585299562,2.4866745065651403,244.4753673998639,106.12342867624743,7.918176267626809,148.713623046875,5.257469631979613,3,2,-74,0.5544152968108103,0.3915251906221277,0.2093931879809951,0.8659751799446764,0.1945904642343521,0.1321127861738205,0.04356745630502701,0.192136749625206,-0.3815986216068268,-0.9041382670402527,-0.029477983713150024,0.10262218117713928,-0.048040688037872314,0,0,0
1695165601.050156,Llama,36.99999437343533,-122.05979864585646,10.998908332809451,1.5314321585299562,2.4866745065651403,244.4753673998639,106.12342867624743,7.918176267626809,148.713623046875,5.257469631979613,3,1,-82,1.3607004121501247,0.3915251906221277,0.2093931879809951,0.8659751799446764,0.1945904642343521,0.1321127861738205,0.04356745630502701,0.192136749625206,-0.3815986216068268,-0.9041382670402527,-0.029477983713150024,0.10262218117713928,-0.048040688037872314,0,0,0
1695165602.043908,Llama,36.99996958022112,-122.05968535292385,10.72352429433755,1.6468196303348666,2.152019083158399,244.299006476067,106.11222629875883,8.991779524200158,166.54075622558594,5.407431177087571,3,2,-71,0.39321646644814046,0.0607531554286487,0.257278750001746,0.5868271100413462,2.072303533554077,-0.15539616346359253,0.41365888714790344,0.2539803683757782,-0.06071579083800316,-0.9653018116950989,-0.01168602705001831,0.04884447902441025,0.024215996265411377,0,0,0
1695165602.043908,Llama,36.99996958022112,-122.05968535292385,10.72352429433755,1.6468196303348666,2.152019083158399,244.299006476067,106.11222629875883,8.991779524200158,166.54075622558594,5.407431177087571,3,1,-89,1.5986710979272678,0.0607531554286487,0.257278750001746,0.5868271100413462,2.072303533554077,-0.15539616346359253,0.41365888714790344,0.2539803683757782,-0.06071579083800316,-0.9653018116950989,-0.01168602705001831,0.04884447902441025,0.024215996265411377,0,0,0
1695165603.04628,Llama,36.99991861478407,-122.05956266309224,10.663270696105446,1.4560925649243848,2.219445858082127,244.09321314003319,108.06143028795168,8.771914321766474,153.11659240722656,5.376628969312548,3,2,-66,0.22127888969511753,0.7365003612402397,0.22300692938414596,0.7532734211478789,0.10835862159729004,0.05951452627778053,-0.03984077647328377,0.16384288668632507,-0.6716994047164917,-0.7224786877632141,-0.023507744073867798,0.0571516752243042,-0.11625111103057861,0,0,0
1695165603.04628,Llama,36.99991861478407,-122.05956266309224,10.663270696105446,1.4560925649243848,2.219445858082127,244.09321314003319,108.06143028795168,8.771914321766474,153.11659240722656,5.376628969312548,3,1,-82,1.431814284830943,0.7365003612402397,0.22300692938414596,0.7532734211478789,0.10835862159729004,0.05951452627778053,-0.03984077647328377,0.16384288668632507,-0.6716994047164917,-0.7224786877632141,-0.023507744073867798,0.0571516752243042,-0.11625111103057861,0,0,0
1695165604.040159,Llama,36.999886879207374,-122.05944869417358,10.456504880269069,1.3915911141666621,2.512733837568577,243.44065058790147,107.21136613580025,7.844454960563705,149.60037231445312,5.24506488942956,3,2,-77,0.3410242738790492,0.3828961632124314,0.30801556519240236,0.8415497250418448,0.14099209010601044,-0.648806631565094,0.8664489984512329,0.28121471405029297,-0.37360846996307373,-0.883931577205658,0.23386099934577942,-0.25760185718536377,-0.35732513666152954,0,0,0
1695165604.040159,Llama,36.999886879207374,-122.05944869417358,10.456504880269069,1.3915911141666621,2.512733837568577,243.44065058790147,107.21136613580025,7.844454960563705,149.60037231445312,5.24506488942956,3,1,-89,1.6666591394365904,0.3828961632124314,0.30801556519240236,0.8415497250418448,0.14099209010601044,-0.648806631565094,0.8664489984512329,0.28121471405029297,-0.37360846996307373,-0.883931577205658,0.23386099934577942,-0.25760185718536377,-0.35732513666152954,0,0,0
1695165605.0597491,Llama,36.999855472570985,-122.05933240138997,10.435926683528546,1.3219084335293791,2.84518022630984,242.8179474528879,105.64742032471068,6.7786092187378655,270.057373046875,5.0724241258597775,3,2,-78,0.4596852465034043,0.5336487510422313,1.6988931017974065,-1.818998978192814,0.6070795655250549,0.5279036164283752,-0.8273811936378479,0.8539029359817505,-0.508678138256073,0.10998444259166718,-0.3557186722755432,0.1450154185295105,-0.2958059310913086,0,0,0
1695165605.0597491,Llama,36.999855472570985,-122.05933240138997,10.435926683528546,1.3219084335293791,2.84518022630984,242.8179474528879,105.64742032471068,6.7786092187378655,270.057373046875,5.0724241258597775,3,1,-93,2.0364124349841437,0.5336487510422313,1.6988931017974065,-1.818998978192814,0.6070795655250549,0.5279036164283752,-0.8273811936378479,0.8539029359817505,-0.508678138256073,0.10998444259166718,-0.3557186722755432,0.1450154185295105,-0.2958059310913086,0,0,0
1695165606.04711,Llama,36.999806479529774,-122.05923875640896,9.962530099939336,1.470906411195204,2.971155127628518,242.93572408799082,107.4351847554637,7.351688621950602,282.7335510253906,4.999677413629363,3,2,-71,0.3514104871860033,0.41715733316944853,1.5448229170791699,-1.8238592669487221,-1.104172706604004,-0.36448562145233154,-0.022152027115225792,0.9139360785484314,-0.4051631987094879,-0.02374337613582611,-0.21996629238128662,0.2753719091415405,0.08577042818069458,0,0,0
1695165606.04711,Llama,36.999806479529774,-122.05923875640896,9.962530099939336,1.470906411195204,2.971155127628518,242.93572408799082,107.4351847554637,7.351688621950602,282.7335510253906,4.999677413629363,3,1,-83,1.7625066123071664,0.41715733316944853,1.5448229170791699,-1.8238592669487221,-1.104172706604004,-0.36448562145233154,-0.022152027115225792,0.9139360785484314,-0.4051631987094879,-0.02374337613582611,-0.21996629238128662,0.2753719091415405,0.08577042818069458,0,0,0
1695165607.0432801,Llama,36.99978326109361,-122.05915543397516,9.279722720461823,1.539705471329846,3.0109526329260823,241.45810813084245,105.79313206052207,8.312755830393101,261.3843994140625,4.975811619732435,3,2,-70,0.2893784337851121,0.6620366318752833,1.5483476927016262,-1.709762463369009,0.16942177712917328,1.2362241744995117,1.482479214668274,0.7885434627532959,-0.6147245168685913,-0.01770469732582569,-0.35351526737213135,0.9546291828155518,-0.49502110481262207,0,0,0
1695165607.0432801,Llama,36.99978326109361,-122.05915543397516,9.279722720461823,1.539705471329846,3.0109526329260823,241.45810813084245,105.79313206052207,8.312755830393101,261.3843994140625,4.975811619732435,3,1,-79,1.3115270434188795,0.6620366318752833,1.5483476927016262,-1.709762463369009,0.16942177712917328,1.2362241744995117,1.482479214668274,0.7885434627532959,-0.6147245168685913,-0.01770469732582569,-0.35351526737213135,0.9546291828155518,-0.49502110481262207,0,0,0
1695165608.0490398,Llama,36.9997623794965,-122.05906337057807,8.674672252857835,1.3491085892481944,3.0756671112015472,241.41805755719543,106.82605594434527,8.27151130238811,139.32757568359375,4.936072209141796,3,2,-71,0.28344410957858324,0.821437272282599,-0.12913669833351749,1.1413458302689754,-0.36511173844337463,0.3501030206680298,0.2037140130996704,-0.08771972358226776,-0.7321256399154663,-0.6754978895187378,-0.009280353784561157,0.10627102851867676,-0.07262521982192993,0,0,0
1695165608.0490398,Llama,36.9997623794965,-122.05906337057807,8.674672252857835,1.3491085892481944,3.0756671112015472,241.41805755719543,106.82605594434527,8.27151130238811,139.32757568359375,4.936072209141796,3,1,-83,1.3057215170073322,0.821437272282599,-0.12913669833351749,1.1413458302689754,-0.36511173844337463,0.3501030206680298,0.2037140130996704,-0.08771972358226776,-0.7321256399154663,-0.6754978895187378,-0.009280353784561157,0.10627102851867676,-0.07262521982192993,0,0,0
1695165609.044938,Llama,36.99976219524497,-122.05898525419693,7.522858883417925,1.270373665012855,3.158203136705082,240.60657912213355,103.07085681116602,8.862736807044561,138.75637817382812,4.883675867632394,3,2,-68,0.2243185627356027,0.7405788991076796,-0.14280732311875025,1.1562954886258163,0.13736507296562195,0.03913246840238571,0.9096364974975586,-0.10504506528377533,-0.6747152805328369,-0.7305647730827332,-0.03820440173149109,0.12896937131881714,0.0010420680046081543,0,0,0
1695165609.044938,Llama,36.99976219524497,-122.05898525419693,7.522858883417925,1.270373665012855,3.158203136705082,240.60657912213355,103.07085681116602,8.862736807044561,138.75637817382812,4.883675867632394,3,1,-86,1.438304609328596,0.7405788991076796,-0.14280732311875025,1.1562954886258163,0.13736507296562195,0.03913246840238571,0.9096364974975586,-0.10504506528377533,-0.6747152805328369,-0.7305647730827332,-0.03820440173149109,0.12896937131881714,0.0010420680046081543,0,0,0
1695165610.0490541,Llama,36.999770472598044,-122.05891376498593,6.511178200285156,1.237819817915665,3.1952659154036924,239.88628788478673,97.02929572722881,9.85174323174975,129.13772583007812,4.8595074609108515,3,2,-69,0.21919296927150625,0.6587860992383147,-0.1381957651999905,1.2978154710505583,0.30404430627822876,-0.1326105296611786,0.15970736742019653,-0.1089288592338562,-0.61215740442276,-0.7831971645355225,-0.025836743414402008,0.10802227258682251,-0.07246989011764526,0,0,0
1695165610.0490541,Llama,36.999770472598044,-122.05891376498593,6.511178200285156,1.237819817915665,3.1952659154036924,239.88628788478673,97.02929572722881,9.85174323174975,129.13772583007812,4.8595074609108515,3,1,-87,1.594523576181761,0.6587860992383147,-0.1381957651999905,1.2978154710505583,0.30404430627822876,-0.1326105296611786,0.15970736742019653,-0.1089288592338562,-0.61215740442276,-0.7831971645355225,-0.025836743414402008,0.10802227258682251,-0.07246989011764526,0,0,0
1695165611.047275,Llama,36.999775114627724,-122.05885297050746,5.802315929399675,1.3472196599811121,3.1932313040151694,240.32393581513315,94.74796465537632,11.302304092023268,129.33319091796875,4.8608446665005065,3,2,-69,0.21701014197680646,0.7145671099895664,-0.1310237171269556,1.3089379816780145,-0.11728020012378693,0.14476244151592255,-0.022354602813720703,-0.09868936985731125,-0.6552904844284058,-0.748902440071106,-0.04602494835853577,0.09942799806594849,-0.010664820671081543,0,0,0
1695165611.047275,Llama,36.999775114627724,-122.05885297050746,5.802315929399675,1.3472196599811121,3.1932313040151694,240.32393581513315,94.74796465537632,11.302304092023268,129.33319091796875,4.8608446665005065,3,1,-83,1.493537361979941,0.7145671099895664,-0.1310237171269556,1.3089379816780145,-0.11728020012378693,0.14476244151592255,-0.022354602813720703,-0.09868936985731125,-0.6552904844284058,-0.748902440071106,-0.04602494835853577,0.09942799806594849,-0.010664820671081543,0,0,0
1695165612.052439,Llama,36.9997677651919,-122.0588076012898,4.946651815497544,1.4038162005519883,3.1828296333769956,240.14082259312272,95.54160962442403,13.770077119222536,127.2386245727539,4.8676619190003425,3,2,-70,0.2323129622177272,0.683001494060145,-0.16582757633678374,1.3550131426807592,-0.00547188613563776,-0.01355322077870369,0.09914429485797882,-0.12804074585437775,-0.6311240792274475,-0.7650412321090698,-0.03063538670539856,0.046010494232177734,-0.029361844062805176,0,0,0
1695165612.052439,Llama,36.9997677651919,-122.0588076012898,4.946651815497544,1.4038162005519883,3.1828296333769956,240.14082259312272,95.54160962442403,13.770077119222536,127.2386245727539,4.8676619190003425,3,1,-88,1.6825079334060884,0.683001494060145,-0.16582757633678374,1.3550131426807592,-0.00547188613563776,-0.01355322077870369,0.09914429485797882,-0.12804074585437775,-0.6311240792274475,-0.7650412321090698,-0.03063538670539856,0.046010494232177734,-0.029361844062805176,0,0,0
1695165613.0493631,Llama,36.99976678388275,-122.05878193572013,3.433656655943692,1.2536978856428524,3.2272837965034857,239.8343279864639,96.61959138381623,18.9321418009842,125.63764190673828,4.838303042350167,3,2,-72,0.27387890522044345,0.406651142946682,-0.01227086383042174,1.2879490926662593,-1.034916877746582,0.818647027015686,-0.5540145635604858,-0.01126989908516407,-0.39553579688072205,-0.91838139295578,0.03272378444671631,-0.028750121593475342,-0.1976463794708252,0,0,0
1695165613.0493631,Llama,36.99976678388275,-122.05878193572013,3.433656655943692,1.2536978856428524,3.2272837965034857,239.8343279864639,96.61959138381623,18.9321418009842,125.63764190673828,4.838303042350167,3,1,-86,1.7375911860179782,0.406651142946682,-0.01227086383042174,1.2879490926662593,-1.034916877746582,0.818647027015686,-0.5540145635604858,-0.01126989908516407,-0.39553579688072205,-0.91838139295578,0.03272378444671631,-0.028750121593475342,-0.1976463794708252,0,0,0
1695165614.053423,Llama,36.99977266360111,-122.05878377859894,1.6739881276752795,1.2945130576994193,3.1987934867113017,240.19990276638418,94.26071350560625,39.150902576776865,132.17491149902344,4.857186146542275,3,2,-73,0.31492788149398776,0.37477958473303175,0.25839410313263955,1.1449701991575605,-0.4222060739994049,-0.5842340588569641,-0.25829365849494934,0.23779165744781494,-0.36606740951538086,-0.8996942639350891,-0.03253038227558136,-0.13056039810180664,0.010091662406921387,0,0,0
1695165614.053423,Llama,36.99977266360111,-122.05878377859894,1.6739881276752795,1.2945130576994193,3.1987934867113017,240.19990276638418,94.26071350560625,39.150902576776865,132.17491149902344,4.857186146542275,3,1,-90,1.9851175401683887,0.37477958473303175,0.25839410313263955,1.1449701991575605,-0.4222060739994049,-0.5842340588569641,-0.25829365849494934,0.23779165744781494,-0.36606740951538086,-0.8996942639350891,-0.03253038227558136,-0.13056039810180664,0.010091662406921387,0,0,0
1695165615.0470529,Llama,36.99977659928632,-122.05878739858164,0.40800854863270847,1.2998051269034234,3.2537272997951976,239.74605182558298,80.31985803912326,106.63470827455323,136.81507873535156,4.820559686525652,3,2,-74,0.35791614253469234,0.2252039908007617,0.0435078666538228,1.1228423328533945,0.3299363851547241,-0.22422951459884644,-0.04206812381744385,0.042395852506160736,-0.22330521047115326,-0.9738261699676514,0.11238934099674225,-0.17954207956790924,0.06417346000671387,0,0,0
1695165615.0470529,Llama,36.99977659928632,-122.05878739858164,0.40800854863270847,1.2998051269034234,3.2537272997951976,239.74605182558298,80.31985803912326,106.63470827455323,136.81507873535156,4.820559686525652,3,1,-87,2.02772716138065,0.2252039908007617,0.0435078666538228,1.1228423328533945,0.3299363851547241,-0.22422951459884644,-0.04206812381744385,0.042395852506160736,-0.22330521047115326,-0.9738261699676514,0.11238934099674225,-0.17954207956790924,0.06417346000671387,0,0,0
1695165616.0386062,Llama,36.99977901956432,-122.05878783263805,0.32191251529915427,1.2982830996378756,3.2173457605441715,239.15436004847288,49.25228482758736,96.75449211565747,137.8653564453125,4.844917263472854,3,2,-67,0.22697887916896864,0.32944622363532017,0.05126392591228805,1.0842978111896944,0.31110692024230957,-0.03651036322116852,0.01876240223646164,0.04848579317331314,-0.3235190808773041,-0.9449785947799683,0.09886838495731354,-0.13519063591957092,-0.04160892963409424,0,0,0
1695165616.0386062,Llama,36.99977901956432,-122.05878783263805,0.32191251529915427,1.2982830996378756,3.2173457605441715,239.15436004847288,49.25228482758736,96.75449211565747,137.8653564453125,4.844917263472854,3,1,-82,1.6828317594839641,0.32944622363532017,0.05126392591228805,1.0842978111896944,0.31110692024230957,-0.03651036322116852,0.01876240223646164,0.04848579317331314,-0.3235190808773041,-0.9449785947799683,0.09886838495731354,-0.13519063591957092,-0.04160892963409424,0,0,0
